NMEA,$GPGGA,032225.00,3725.651498,N,12209.425132,W,1,33,0.3,8.8,M,-28.4,M,,*55,1701228145620
NMEA,$PGLOR,11,STA,032225.00,0.130,0.000,-1050,1,3,3,P,S,L,0,C,3,S,00100002,80,5,R,000833F4,TPeF,41,148945,LC,,,DR,3,0,*00,1701228145620
NMEA,$PGLOR,1,UNC,032225.00,0.007,3.4,3.0,0.13,180.00,3.8,3.4,118.1*24,1701228145621
NMEA,$PGLOR,2,SAT,8,1,E18,27,7AF,R22,31,2B,E30,25,7AF,G19,30,2F,R12,39,2F,G24,41,7AF*70,1701228145621
NMEA,$PGLOR,2,SAT,8,2,E34,24,7AF,G06,28,7AF,R11,29,2F,G22,26,2B,R21,37,2F,G17,31,2F*3F,1701228145621
NMEA,$PGLOR,2,SAT,8,3,E27,42,7AF,E15,31,7AF,R23,26,2F,G11,29,7AF,E02,17,2002F,G12,39,2F*5E,1701228145621
NMEA,$PGLOR,2,SAT,8,4,R13,35,2F,E36,34,7AF,G14,10,20020,E07,34,7AF,G13,28,2B,G15,26,2B*65,1701228145621
NMEA,$PGLOR,2,SAT,8,5,R03,,20,E19,,20,R04,,20,G30,,20,G03,,20,S12,,00*27,1701228145621
NMEA,$PGLOR,2,SAT,8,6,S14,,00,S16,,00,S19,,00,R10,,20,S18,,00,R02,,20*3C,1701228145621
NMEA,$PGLOR,2,SAT,8,7,S17,,00,S09,,00,S10,,00,R20,,20,R01,,20,S04,,00*34,1701228145621
NMEA,$PGLOR,2,SAT,8,8,S08,,00,G31,,20,G32,,20,Q02,,20,Q01,,00,Q04,,20*3C,1701228145621
NMEA,$PGLOR,2,SVC,GPS,0,4,1,14,006,SKUS,SKUS,019,SKUS,SKUS,022,SKUS,SKUS,024,SKPR,SKUS*66,1701228145621
NMEA,$PGLOR,2,SVC,GPS,0,4,2,14,011,SKUS,SKUS,012,SKUS,SKUS,014,SKUS,SKUS,017,CLIN,CLIN*69,1701228145621
NMEA,$PGLOR,2,SVC,GPS,0,4,3,14,003,SKPR,SKUS,013,SKPR,SKUS,015,CLIN,CLIN,030,CLIN,CLIN*6E,1701228145621
NMEA,$PGLOR,2,SVC,GPS,0,4,4,14,031,CLIN,CLIN,032,CLIN,CLIN*6C,1701228145621
NMEA,$PGLOR,2,SVC,GPS,2,1,1,04,006,SKUS,SKUS,011,SKUS,SKUS,014,SKUS,SKUS,024,CLIN,CLIN*69,1701228145621
NMEA,$PGLOR,2,SVC,SBS,0,3,1,10,044,CLIN,CLIN,046,CLIN,CLIN,048,CLIN,CLIN,051,CLIN,CLIN*65,1701228145621
NMEA,$PGLOR,2,SVC,SBS,0,3,2,10,041,CLIN,CLIN,042,CLIN,CLIN,049,CLIN,CLIN,050,CLIN,CLIN*67,1701228145621
NMEA,$PGLOR,2,SVC,SBS,0,3,3,10,036,CLIN,CLIN,040,CLIN,CLIN*6C,1701228145621
NMEA,$PGLOR,2,SVC,GLO,0,3,1,12,056,SKPR,SKUS,058,SKUS,SKUS,059,SKUS,SKUS,063,SKUS,SKUS*68,1701228145621
NMEA,$PGLOR,2,SVC,GLO,0,3,2,12,057,SKUS,SKUS,062,SKUS,SKUS,064,CLIN,CLIN,065,CLIN,CLIN*6F,1701228145621
NMEA,$PGLOR,2,SVC,GLO,0,3,3,12,052,CLIN,CLIN,055,CLIN,CLIN,060,CLIN,CLIN,061,CLIN,CLIN*6F,1701228145621
NMEA,$PGLOR,2,SVC,QZS,0,1,1,03,066,CLIN,CLIN,067,CLIN,CLIN,069,CLIN,CLIN*67,1701228145621
NMEA,$PGLOR,2,SVC,GAL,0,3,1,09,156,SKUS,SKUS,165,SKUS,SKUS,168,SKUS,SKUS,172,SKUS,SKUS*64,1701228145621
NMEA,$PGLOR,2,SVC,GAL,0,3,2,09,140,SKUS,SKUS,145,SKUS,SKUS,153,SKUS,SKUS,174,SKUS,SKUS*6C,1701228145621
NMEA,$PGLOR,2,SVC,GAL,0,3,3,09,157,CLIN,CLIN*72,1701228145621
NMEA,$PGLOR,2,SVC,GAL,2,2,1,08,156,SKUS,SKUS,165,SKUS,SKUS,168,SKUS,SKUS,172,SKUS,SKUS*66,1701228145621
NMEA,$PGLOR,2,SVC,GAL,2,2,2,08,140,SKUS,SKUS,145,CLIN,CLIN,153,SKUS,SKUS,174,SKUS,SKUS*6E,1701228145621
NMEA,$PGLOR,2,SIO,TxERR,0,RxERR,0,TxCNT,915,RxCNT,9345,MLFRMPKT,0,DTMS,1009,DTIN,37,59,DTOUT,15,950,HATMD,57*19,1701228145621
NMEA,$PGLOR,2,HLA,032225.00,L,,Al,,A,,H,,,M,0,Ac,0,Gr,0,S,,,Sx,,,T,0,Tr,,Mn,,Ap,-19,Ta,0,,,Aa,1,Ga,1,*3B,1701228145621
NMEA,$PGLOR,3,CTX,032225.00,E,1,1,,,V,2,0,S,,,*7E,1701228145621
NMEA,$PGLOR,1,LSQ,032225.00,3725.682915,N,12209.395107,W,0.0,0.9,-51.0,0.0,1.5,,,,,,,10,-7.6,25.4*31,1701228145621
NMEA,$PGLOR,6,PWR,mA,20.4,RFTm,688,OscTm,1001,MeasTm,1001,UTC,032225.00,GNSSmA,19.1,CPUTm,196,COPTm,78,COPMargTm,156,Sr*00,1701228145621
NMEA,$PGLOR,0,PPS,291123,032225.000,140170,054425.300,000.100,1,0,1,*1A,1701228145621
NMEA,$PGLOR,2,AGC,G,42.6,R,62.1,B,18.5,E5A,28.7,E5B,,L2,*1F,1701228145621
NMEA,$PSSGR,GSA,A,3,06,11,12,13,15,17,19,22,24,,,,1.8,0.8,1.6,1,1*41,1701228145621
NMEA,$PSSGR,GSA,A,3,06,11,24,,,,,,,,,,1.8,0.8,1.6,1,8*43,1701228145621
NMEA,$PSSGR,GSA,A,3,,,,,,,,,,,,,1.8,0.8,1.6,1,9*42,1701228145621
NMEA,$PSSGR,GSA,A,3,75,76,77,85,86,87,,,,,,,1.8,0.8,1.6,2,1*46,1701228145621
NMEA,$PSSGR,GSA,A,3,,,,,,,,,,,,,1.8,0.8,1.6,5,1*4E,1701228145621
NMEA,$PSSGR,GSA,A,3,,,,,,,,,,,,,1.8,0.8,1.6,5,8*47,1701228145621
NMEA,$PSSGR,GSA,A,3,,,,,,,,,,,,,1.8,0.8,1.6,5,9*46,1701228145621
NMEA,$PSSGR,GSA,A,3,,,,,,,,,,,,,1.8,0.8,1.6,4,1*4F,1701228145621
NMEA,$PSSGR,GSA,A,3,,,,,,,,,,,,,1.8,0.8,1.6,4,5*4B,1701228145621
NMEA,$PSSGR,GSA,A,3,,,,,,,,,,,,,1.8,0.8,1.6,4,3*4D,1701228145622
NMEA,$PSSGR,GSA,A,3,102,107,115,118,127,130,134,136,,,,,1.8,0.8,1.6,3,7*42,1701228145622
NMEA,$PSSGR,GSA,A,3,107,115,118,127,130,134,136,,,,,,1.8,0.8,1.6,3,1*77,1701228145622
NMEA,$PSSGR,GSA,A,3,,,,,,,,,,,,,1.8,0.8,1.6,6,1*4D,1701228145622
NMEA,$GPGSV,7,1,28,19,65,035,37,24,56,288,44,06,51,140,31,22,39,082,31*7C,1701228145622
NMEA,$GPGSV,7,2,28,17,37,046,36,11,27,174,32,12,24,296,44,14,20,094,17*71,1701228145622
NMEA,$GPGSV,7,3,28,13,12,205,32,15,10,239,33,30,00,148,,03,00,051,*74,1701228145622
NMEA,$GPGSV,7,4,28,44,46,172,,46,46,191,,48,45,198,,51,44,156,*74,1701228145622
NMEA,$GPGSV,7,5,28,50,,,,49,,,,41,,,,42,,,*7A,1701228145622
NMEA,$GPGSV,7,6,28,36,,,,40,,,,31,,,,32,,,*70,1701228145622
NMEA,$GPGSV,7,7,28,24,,,41,06,,,36,11,,,27,14,,,20,8*65,1701228145622
NMEA,$GLGSV,3,1,12,86,78,133,35,76,63,358,43,75,40,109,34,85,39,034,43*61,1701228145622
NMEA,$GLGSV,3,2,12,87,28,199,30,77,22,320,39,67,05,302,,68,01,346,*60,1701228145622
NMEA,$GLGSV,3,3,12,74,,,,66,,,,84,,,,65,,,*6A,1701228145622
NMEA,$QZGSV,1,1,03,02,,,,01,,,,04,,,*61,1701228145622
NMEA,$GAGSV,5,1,17,118,85,024,35,130,69,035,30,134,55,096,30,127,37,304,46*68,1701228145622
NMEA,$GAGSV,5,2,17,115,35,171,34,102,26,093,25,136,21,041,39,107,18,236,38*6B,1701228145622
NMEA,$GAGSV,5,3,17,119,02,329,*6B,1701228145622
NMEA,$GAGSV,5,4,17,118,,,35,130,,,33,134,,,31,127,,,33,1*7E,1701228145622
NMEA,$GAGSV,5,5,17,115,,,38,102,,,20,136,,,31,107,,,34,1*7B,1701228145622
NMEA,$GPGSA,A,3,06,11,12,13,15,17,19,22,24,,,,1.8,0.8,1.6*3F,1701228145622
NMEA,$GPGSA,A,3,06,11,24,,,,,,,,,,1.8,0.8,1.6,8*20,1701228145622
NMEA,$GPGSA,A,3,,,,,,,,,,,,,1.8,0.8,1.6,9*21,1701228145622
NMEA,$QZGSA,A,3,,,,,,,,,,,,,1.8,0.8,1.6*28,1701228145622
NMEA,$QZGSA,A,3,,,,,,,,,,,,,1.8,0.8,1.6,8*3C,1701228145622
NMEA,$QZGSA,A,3,,,,,,,,,,,,,1.8,0.8,1.6,9*3D,1701228145622
NMEA,$BDGSA,A,3,,,,,,,,,,,,,1.8,0.8,1.6*25,1701228145622
NMEA,$BDGSA,A,3,,,,,,,,,,,,,1.8,0.8,1.6,5*3C,1701228145622
NMEA,$BDGSA,A,3,,,,,,,,,,,,,1.8,0.8,1.6,3*3A,1701228145622
NMEA,$GAGSA,A,3,102,107,115,118,127,130,134,136,,,,,1.8,0.8,1.6*29,1701228145622
NMEA,$GAGSA,A,3,107,115,118,127,130,134,136,,,,,,1.8,0.8,1.6,1*07,1701228145622
NMEA,$NCGSA,A,3,,,,,,,,,,,,,1.8,0.8,1.6,1*33,1701228145622
NMEA,$GNGSA,A,3,06,11,12,13,15,17,19,22,24,,,,1.8,0.8,1.6*21,1701228145622
NMEA,$GNGSA,A,3,75,76,77,85,86,87,,,,,,,1.8,0.8,1.6*25,1701228145622
NMEA,$PGLOR,1,FIX,1.0,1.0*20,1701228145622
NMEA,$GPRMC,032225.00,A,3725.651498,N,12209.425132,W,000.1,053.7,291123,,,A*4D,1701228145622
NMEA,$PGLOR,SPL,20231128192225.6,POS,20231129032225.000,37.427525,-122.157086,3,3,0,-20,3,1.100000*6D,1701228145622
NMEA,$GPGGA,032226.00,3725.651464,N,12209.425149,W,1,33,0.3,8.9,M,-28.4,M,,*58,1701228146605
NMEA,$PGLOR,11,STA,032226.00,0.130,0.000,-1050,1,3,3,P,S,L,0,C,3,S,00100002,80,5,R,000833F4,TPEF,36,149945,LC,,,DR,3,0,*00,1701228146606
NMEA,$PGLOR,1,UNC,032226.00,0.007,3.4,3.0,0.13,180.00,3.9,3.4,118.0*27,1701228146606
NMEA,$PGLOR,2,SAT,4,1,E18,26,7AF,R22,31,2B,E30,26,7AF,G19,29,2F,R12,39,2F,G24,40,7AF*77,1701228146606
NMEA,$PGLOR,2,SAT,4,2,E34,25,7AF,G06,28,7AF,R11,30,2F,R21,37,2F,G22,25,2B,G17,32,2F*3A,1701228146606
NMEA,$PGLOR,2,SAT,4,3,E27,42,7AF,E15,32,7AF,R23,26,2F,G11,29,7AB,E02,17,2002F,G12,38,2F*54,1701228146606
NMEA,$PGLOR,2,SAT,4,4,R13,34,2F,E36,33,7AF,G14,12,20020,E07,33,7AF,G13,27,2B,G15,23,2B*60,1701228146606
NMEA,$PGLOR,2,SVC,GPS,0,3,1,10,006,SKUS,SKUS,019,SKUS,SKUS,022,SKUS,SKUS,024,SKPR,SKUS*65,1701228146606
NMEA,$PGLOR,2,SVC,GPS,0,3,2,10,011,SKUS,SKUS,012,SKUS,SKUS,014,SKUS,SKUS,017,CLIN,CLIN*6A,1701228146606
NMEA,$PGLOR,2,SVC,GPS,0,3,3,10,013,SKPR,SKUS,015,SKPR,SKUS*6D,1701228146606
NMEA,$PGLOR,2,SVC,GPS,2,1,1,04,006,SKUS,SKUS,011,SKUS,SKUS,014,SKUS,SKUS,024,CLIN,CLIN*69,1701228146606
NMEA,$PGLOR,2,SVC,GLO,0,2,1,06,056,SKPR,SKUS,058,SKUS,SKUS,059,SKUS,SKUS,063,SKUS,SKUS*6C,1701228146606
NMEA,$PGLOR,2,SVC,GLO,0,2,2,06,057,SKUS,SKUS,062,SKUS,SKUS*6A,1701228146606
NMEA,$PGLOR,2,SVC,GAL,0,2,1,08,156,SKUS,SKUS,165,SKUS,SKUS,168,SKUS,SKUS,172,SKUS,SKUS*64,1701228146606
NMEA,$PGLOR,2,SVC,GAL,0,2,2,08,140,SKUS,SKUS,145,SKUS,SKUS,153,SKUS,SKUS,174,SKUS,SKUS*6C,1701228146606
NMEA,$PGLOR,2,SVC,GAL,2,2,1,08,156,SKUS,SKUS,165,SKUS,SKUS,168,SKUS,SKUS,172,SKUS,SKUS*66,1701228146606
NMEA,$PGLOR,2,SVC,GAL,2,2,2,08,140,SKUS,SKUS,145,CLIN,CLIN,153,SKUS,SKUS,174,SKUS,SKUS*6E,1701228146606
NMEA,$PGLOR,2,SIO,TxERR,0,RxERR,0,TxCNT,904,RxCNT,8672,MLFRMPKT,0,DTMS,989,DTIN,14,42,DTOUT,11,946,HATMD,46*21,1701228146606
NMEA,$PGLOR,2,HLA,032226.00,L,,Al,,A,,H,,,M,0,Ac,0,Gr,0,S,,,Sx,,,T,0,Tr,,Mn,,Ap,-20,Ta,0,,,Aa,1,Ga,1,*32,1701228146606
NMEA,$PGLOR,3,CTX,032226.00,E,1,1,,,V,2,0,S,,,*7D,1701228146606
NMEA,$PGLOR,1,LSQ,032226.00,3725.684286,N,12209.395229,W,0.0,0.9,-52.2,0.0,1.5,,,,,,,10,-7.6,25.8*37,1701228146606
NMEA,$PGLOR,6,PWR,mA,20.4,RFTm,686,OscTm,999,MeasTm,999,UTC,032226.00,GNSSmA,19.1,CPUTm,196,COPTm,78,COPMargTm,156,Srch*00,1701228146606
NMEA,$PGLOR,0,PPS,291123,032226.000,140170,054426.300,000.100,1,0,1,*1A,1701228146606
NMEA,$PGLOR,2,AGC,G,42.6,R,61.8,B,18.5,E5A,29.7,E5B,,L2,*14,1701228146606
NMEA,$PSSGR,GSA,A,3,06,11,12,13,15,17,19,22,24,,,,1.8,0.8,1.6,1,1*41,1701228146606
NMEA,$PSSGR,GSA,A,3,06,11,24,,,,,,,,,,1.8,0.8,1.6,1,8*43,1701228146606
NMEA,$PSSGR,GSA,A,3,,,,,,,,,,,,,1.8,0.8,1.6,1,9*42,1701228146606
NMEA,$PSSGR,GSA,A,3,75,76,77,85,86,87,,,,,,,1.8,0.8,1.6,2,1*46,1701228146606
NMEA,$PSSGR,GSA,A,3,,,,,,,,,,,,,1.8,0.8,1.6,5,1*4E,1701228146606
NMEA,$PSSGR,GSA,A,3,,,,,,,,,,,,,1.8,0.8,1.6,5,8*47,1701228146606
NMEA,$PSSGR,GSA,A,3,,,,,,,,,,,,,1.8,0.8,1.6,5,9*46,1701228146606
NMEA,$PSSGR,GSA,A,3,,,,,,,,,,,,,1.8,0.8,1.6,4,1*4F,1701228146606
NMEA,$PSSGR,GSA,A,3,,,,,,,,,,,,,1.8,0.8,1.6,4,5*4B,1701228146606
NMEA,$PSSGR,GSA,A,3,,,,,,,,,,,,,1.8,0.8,1.6,4,3*4D,1701228146606
NMEA,$PSSGR,GSA,A,3,102,107,115,118,127,130,134,136,,,,,1.8,0.8,1.6,3,7*42,1701228146606
NMEA,$PSSGR,GSA,A,3,107,115,118,127,130,134,136,,,,,,1.8,0.8,1.6,3,1*77,1701228146606
NMEA,$PSSGR,GSA,A,3,,,,,,,,,,,,,1.8,0.8,1.6,6,1*4D,1701228146606
NMEA,$GPGSV,4,1,14,19,65,035,37,24,56,288,44,06,51,140,32,22,39,082,30*72,1701228146606
NMEA,$GPGSV,4,2,14,17,37,046,36,11,27,174,32,12,24,296,44,14,20,094,17*7D,1701228146606
NMEA,$GPGSV,4,3,14,13,12,205,31,15,10,239,33*72,1701228146606
NMEA,$GPGSV,4,4,14,24,,,40,06,,,36,11,,,26,14,,,20,8*6A,1701228146606
NMEA,$GLGSV,2,1,06,86,78,133,35,76,63,358,43,75,40,109,34,85,39,034,43*65,1701228146606
NMEA,$GLGSV,2,2,06,87,28,199,30,77,22,320,39*6F,1701228146606
NMEA,$GAGSV,4,1,16,118,85,024,35,130,69,035,30,134,55,096,30,127,37,304,46*68,1701228146606
NMEA,$GAGSV,4,2,16,115,35,171,36,102,26,093,24,136,21,041,39,107,18,236,38*68,1701228146606
NMEA,$GAGSV,4,3,16,118,,,35,130,,,32,134,,,31,127,,,33,1*78,1701228146606
NMEA,$GAGSV,4,4,16,115,,,38,102,,,21,136,,,31,107,,,34,1*7B,1701228146606
NMEA,$GPGSA,A,3,06,11,12,13,15,17,19,22,24,,,,1.8,0.8,1.6*3F,1701228146606
NMEA,$GPGSA,A,3,06,11,24,,,,,,,,,,1.8,0.8,1.6,8*20,1701228146606
NMEA,$GPGSA,A,3,,,,,,,,,,,,,1.8,0.8,1.6,9*21,1701228146606
NMEA,$QZGSA,A,3,,,,,,,,,,,,,1.8,0.8,1.6*28,1701228146606
NMEA,$QZGSA,A,3,,,,,,,,,,,,,1.8,0.8,1.6,8*3C,1701228146606
NMEA,$QZGSA,A,3,,,,,,,,,,,,,1.8,0.8,1.6,9*3D,1701228146606
NMEA,$BDGSA,A,3,,,,,,,,,,,,,1.8,0.8,1.6*25,1701228146607
NMEA,$BDGSA,A,3,,,,,,,,,,,,,1.8,0.8,1.6,5*3C,1701228146607
NMEA,$BDGSA,A,3,,,,,,,,,,,,,1.8,0.8,1.6,3*3A,1701228146607
NMEA,$GAGSA,A,3,102,107,115,118,127,130,134,136,,,,,1.8,0.8,1.6*29,1701228146607
NMEA,$GAGSA,A,3,107,115,118,127,130,134,136,,,,,,1.8,0.8,1.6,1*07,1701228146607
NMEA,$NCGSA,A,3,,,,,,,,,,,,,1.8,0.8,1.6,1*33,1701228146607
NMEA,$GNGSA,A,3,06,11,12,13,15,17,19,22,24,,,,1.8,0.8,1.6*21,1701228146607
NMEA,$GNGSA,A,3,75,76,77,85,86,87,,,,,,,1.8,0.8,1.6*25,1701228146607
NMEA,$PGLOR,1,FIX,1.0,1.0*20,1701228146607
NMEA,$GPRMC,032226.00,A,3725.651464,N,12209.425149,W,000.1,053.7,291123,,,A*41,1701228146607
NMEA,$PGLOR,SPL,20231128192226.6,POS,20231129032226.000,37.427524,-122.157086,3,3,0,-19,3,1.100000*66,1701228146607
NMEA,$GPGGA,032227.00,3725.651430,N,12209.425122,W,1,32,0.3,9.0,M,-28.4,M,,*5C,1701228147623
NMEA,$PGLOR,11,STA,032227.00,0.130,0.000,-1049,1,3,3,P,S,L,0,C,3,S,00100002,80,5,R,000833F4,TPEF,36,150945,LC,,,DR,3,0,*00,1701228147624
NMEA,$PGLOR,1,UNC,032227.00,0.007,3.4,3.0,0.12,180.00,3.9,3.3,121.1*2B,1701228147625
NMEA,$PGLOR,2,SAT,4,1,E18,26,7AF,R22,30,2B,E30,27,7AF,G19,30,2F,R12,41,2F,G24,40,7AF*70,1701228147625
NMEA,$PGLOR,2,SAT,4,2,E34,28,7AF,G06,31,7AF,R11,32,2F,R21,38,2F,G22,25,2B,G17,34,2F*34,1701228147625
NMEA,$PGLOR,2,SAT,4,3,E27,43,7AF,E15,34,7AF,R23,24,2F,G11,29,7AF,E02,14,20023,G12,38,2F*23,1701228147625
NMEA,$PGLOR,2,SAT,4,4,R13,35,2F,E36,34,7AF,G14,12,20020,E07,31,7AF,G13,24,2B,G15,21,2B*65,1701228147625
NMEA,$PGLOR,2,SVC,GPS,0,3,1,10,006,SKUS,SKUS,019,SKUS,SKUS,022,SKUS,SKUS,024,SKPR,SKUS*65,1701228147625
NMEA,$PGLOR,2,SVC,GPS,0,3,2,10,011,SKUS,SKUS,012,SKPR,SKUS,014,SKUS,SKUS,017,CLIN,CLIN*6E,1701228147625
NMEA,$PGLOR,2,SVC,GPS,0,3,3,10,013,SKPR,SKUS,015,SKPR,SKUS*6D,1701228147625
NMEA,$PGLOR,2,SVC,GPS,2,1,1,04,006,SKUS,SKUS,011,SKUS,SKUS,014,SKUS,SKUS,024,CLIN,CLIN*69,1701228147625
NMEA,$PGLOR,2,SVC,GLO,0,2,1,06,056,SKPR,SKUS,058,SKUS,SKUS,059,SKUS,SKUS,063,SKUS,SKUS*6C,1701228147625
NMEA,$PGLOR,2,SVC,GLO,0,2,2,06,057,SKUS,SKUS,062,SKUS,SKUS*6A,1701228147625
NMEA,$PGLOR,2,SVC,GAL,0,2,1,08,156,SKUS,SKUS,165,SKUS,SKUS,168,SKUS,SKUS,172,SKUS,SKUS*64,1701228147625
NMEA,$PGLOR,2,SVC,GAL,0,2,2,08,140,SKUS,SKUS,145,SKUS,SKUS,153,SKUS,SKUS,174,SKUS,SKUS*6C,1701228147625
NMEA,$PGLOR,2,SVC,GAL,2,2,1,08,156,SKUS,SKUS,165,SKUS,SKUS,168,SKUS,SKUS,172,SKUS,SKUS*66,1701228147625
NMEA,$PGLOR,2,SVC,GAL,2,2,2,08,140,SKUS,SKUS,145,CLIN,CLIN,153,SKUS,SKUS,174,SKUS,SKUS*6E,1701228147626
NMEA,$PGLOR,2,SIO,TxERR,0,RxERR,0,TxCNT,744,RxCNT,8655,MLFRMPKT,0,DTMS,1005,DTIN,8,47,DTOUT,14,955,HATMD,51*2B,1701228147626
NMEA,$PGLOR,2,HLA,032227.00,L,,Al,,A,,H,,,M,0,Ac,0,Gr,0,S,,,Sx,,,T,0,Tr,,Mn,,Ap,-20,Ta,0,,,Aa,1,Ga,1,*33,1701228147626
NMEA,$PGLOR,3,CTX,032227.00,E,1,1,,,V,2,0,S,,,*7C,1701228147626
NMEA,$PGLOR,1,LSQ,032227.00,3725.684459,N,12209.395037,W,0.0,0.9,-62.6,0.0,1.5,,,,,,,10,-7.6,26.0*33,1701228147626
NMEA,$PGLOR,6,PWR,mA,20.5,RFTm,691,OscTm,1000,MeasTm,1000,UTC,032227.00,GNSSmA,19.2,CPUTm,201,COPTm,75,COPMargTm,155,Sr*00,1701228147626
NMEA,$PGLOR,0,PPS,291123,032227.000,140170,054427.300,000.100,1,0,1,*1A,1701228147626
NMEA,$PGLOR,2,AGC,G,41.8,R,60.4,B,18.5,E5A,30.4,E5B,,L2,*1F,1701228147626
NMEA,$PSSGR,GSA,A,3,06,11,12,13,15,17,19,22,24,,,,1.9,0.8,1.8,1,1*4E,1701228147626
NMEA,$PSSGR,GSA,A,3,06,11,24,,,,,,,,,,1.9,0.8,1.8,1,8*4C,1701228147626
NMEA,$PSSGR,GSA,A,3,,,,,,,,,,,,,1.9,0.8,1.8,1,9*4D,1701228147626
NMEA,$PSSGR,GSA,A,3,75,76,77,85,86,87,,,,,,,1.9,0.8,1.8,2,1*49,1701228147626
NMEA,$PSSGR,GSA,A,3,,,,,,,,,,,,,1.9,0.8,1.8,5,1*41,1701228147626
NMEA,$PSSGR,GSA,A,3,,,,,,,,,,,,,1.9,0.8,1.8,5,8*48,1701228147626
NMEA,$PSSGR,GSA,A,3,,,,,,,,,,,,,1.9,0.8,1.8,5,9*49,1701228147626
NMEA,$PSSGR,GSA,A,3,,,,,,,,,,,,,1.9,0.8,1.8,4,1*40,1701228147626
NMEA,$PSSGR,GSA,A,3,,,,,,,,,,,,,1.9,0.8,1.8,4,5*44,1701228147626
NMEA,$PSSGR,GSA,A,3,,,,,,,,,,,,,1.9,0.8,1.8,4,3*42,1701228147626
NMEA,$PSSGR,GSA,A,3,107,115,118,127,130,134,136,,,,,,1.9,0.8,1.8,3,7*7E,1701228147626
NMEA,$PSSGR,GSA,A,3,107,115,118,127,130,134,136,,,,,,1.9,0.8,1.8,3,1*78,1701228147626
NMEA,$PSSGR,GSA,A,3,,,,,,,,,,,,,1.9,0.8,1.8,6,1*42,1701228147627
NMEA,$GPGSV,4,1,14,19,65,035,36,24,56,288,44,06,51,140,34,22,39,082,30*75,1701228147627
NMEA,$GPGSV,4,2,14,17,37,046,38,11,27,174,32,12,24,296,44,14,20,094,17*73,1701228147627
NMEA,$GPGSV,4,3,14,13,12,205,31,15,10,239,32*73,1701228147627
NMEA,$GPGSV,4,4,14,24,,,40,06,,,37,11,,,26,14,,,,8*69,1701228147627
NMEA,$GLGSV,2,1,06,86,78,133,35,76,63,358,44,75,40,109,36,85,39,034,43*60,1701228147627
NMEA,$GLGSV,2,2,06,87,28,199,30,77,22,320,39*6F,1701228147627
NMEA,$GAGSV,4,1,16,118,85,024,34,130,69,035,30,134,55,096,31,127,37,304,46*68,1701228147627
NMEA,$GAGSV,4,2,16,115,35,171,38,102,26,093,23,136,21,041,39,107,18,236,37*6E,1701228147627
NMEA,$GAGSV,4,3,16,118,,,35,130,,,32,134,,,32,127,,,33,1*7B,1701228147627
NMEA,$GAGSV,4,4,16,115,,,40,102,,,22,136,,,30,107,,,33,1*71,1701228147627
NMEA,$GPGSA,A,3,06,11,12,13,15,17,19,22,24,,,,1.9,0.8,1.8*30,1701228147627
NMEA,$GPGSA,A,3,06,11,24,,,,,,,,,,1.9,0.8,1.8,8*2F,1701228147627
NMEA,$GPGSA,A,3,,,,,,,,,,,,,1.9,0.8,1.8,9*2E,1701228147627
NMEA,$QZGSA,A,3,,,,,,,,,,,,,1.9,0.8,1.8*27,1701228147627
NMEA,$QZGSA,A,3,,,,,,,,,,,,,1.9,0.8,1.8,8*33,1701228147627
NMEA,$QZGSA,A,3,,,,,,,,,,,,,1.9,0.8,1.8,9*32,1701228147627
NMEA,$BDGSA,A,3,,,,,,,,,,,,,1.9,0.8,1.8*2A,1701228147627
NMEA,$BDGSA,A,3,,,,,,,,,,,,,1.9,0.8,1.8,5*33,1701228147627
NMEA,$BDGSA,A,3,,,,,,,,,,,,,1.9,0.8,1.8,3*35,1701228147627
NMEA,$GAGSA,A,3,107,115,118,127,130,134,136,,,,,,1.9,0.8,1.8*15,1701228147627
NMEA,$GAGSA,A,3,107,115,118,127,130,134,136,,,,,,1.9,0.8,1.8,1*08,1701228147627
NMEA,$NCGSA,A,3,,,,,,,,,,,,,1.9,0.8,1.8,1*3C,1701228147627
NMEA,$GNGSA,A,3,06,11,12,13,15,17,19,22,24,,,,1.9,0.8,1.8*2E,1701228147628
NMEA,$GNGSA,A,3,75,76,77,85,86,87,,,,,,,1.9,0.8,1.8*2A,1701228147628
NMEA,$PGLOR,1,FIX,1.0,1.0*20,1701228147628
NMEA,$GPRMC,032227.00,A,3725.651430,N,12209.425122,W,000.1,053.7,291123,,,A*4C,1701228147628
NMEA,$PGLOR,SPL,20231128192227.6,POS,20231129032227.000,37.427524,-122.157085,3,3,0,-19,3,1.100000*65,1701228147629
NMEA,$GPGGA,032228.00,3725.651377,N,12209.425123,W,1,33,0.3,9.0,M,-28.4,M,,*57,1701228148629
NMEA,$PGLOR,11,STA,032228.00,0.130,0.000,-1049,1,3,3,P,S,L,0,C,3,S,00100002,80,5,R,000833F4,TPEF,36,151945,LC,,,DR,3,0,*00,1701228148630
NMEA,$PGLOR,1,UNC,032228.00,0.007,3.4,3.0,0.13,180.00,3.9,3.3,120.1*24,1701228148630
NMEA,$PGLOR,2,SAT,4,1,E18,26,7AF,R22,31,2F,E30,27,7AF,G19,30,2F,R12,40,2F,G24,40,7AF*74,1701228148630
NMEA,$PGLOR,2,SAT,4,2,E34,28,7AF,G06,31,7AF,R11,32,2F,R21,38,2F,G22,23,2B,G17,34,2F*32,1701228148630
NMEA,$PGLOR,2,SAT,4,3,E27,43,7AF,E15,34,7AF,R23,23,2F,G11,29,7AB,E02,16,2002F,G12,38,2F*57,1701228148630
NMEA,$PGLOR,2,SAT,4,4,R13,35,2F,E36,34,7AF,G14,13,20020,E07,31,7AF,G13,24,2B,G15,20,2F*61,1701228148630
NMEA,$PGLOR,2,SVC,GPS,0,3,1,10,006,SKUS,SKUS,019,SKUS,SKUS,022,SKUS,SKUS,024,SKPR,SKUS*65,1701228148630
NMEA,$PGLOR,2,SVC,GPS,0,3,2,10,011,SKUS,SKUS,012,SKUS,SKUS,014,SKUS,SKUS,017,CLIN,CLIN*6A,1701228148630
NMEA,$PGLOR,2,SVC,GPS,0,3,3,10,013,SKPR,SKUS,015,SKPR,SKUS*6D,1701228148630
NMEA,$PGLOR,2,SVC,GPS,2,1,1,04,006,SKUS,SKUS,011,SKUS,SKUS,014,SKUS,SKUS,024,CLIN,CLIN*69,1701228148630
NMEA,$PGLOR,2,SVC,GLO,0,2,1,06,056,SKPR,SKUS,058,SKUS,SKUS,059,SKUS,SKUS,063,SKUS,SKUS*6C,1701228148630
NMEA,$PGLOR,2,SVC,GLO,0,2,2,06,057,SKUS,SKUS,062,SKUS,SKUS*6A,1701228148630
NMEA,$PGLOR,2,SVC,GAL,0,2,1,08,156,SKUS,SKUS,165,SKUS,SKUS,168,SKUS,SKUS,172,SKUS,SKUS*64,1701228148630
NMEA,$PGLOR,2,SVC,GAL,0,2,2,08,140,SKUS,SKUS,145,POGH,POGH,153,SKUS,SKUS,174,SKUS,SKUS*6C,1701228148630
NMEA,$PGLOR,2,SVC,GAL,2,2,1,08,156,SKUS,SKUS,165,SKUS,SKUS,168,SKUS,SKUS,172,SKUS,SKUS*66,1701228148630
NMEA,$PGLOR,2,SVC,GAL,2,2,2,08,140,SKUS,SKUS,145,CLIN,CLIN,153,SKUS,SKUS,174,SKUS,SKUS*6E,1701228148630
NMEA,$PGLOR,2,SIO,TxERR,0,RxERR,0,TxCNT,746,RxCNT,8646,MLFRMPKT,0,DTMS,997,DTIN,30,52,DTOUT,17,946,HATMD,48*2E,1701228148630
NMEA,$PGLOR,2,HLA,032228.00,L,,Al,,A,,H,,,M,0,Ac,0,Gr,0,S,,,Sx,,,T,0,Tr,,Mn,,Ap,-19,Ta,0,,,Aa,1,Ga,1,*36,1701228148630
NMEA,$PGLOR,3,CTX,032228.00,E,1,1,,,V,2,0,S,,,*73,1701228148631
NMEA,$PGLOR,1,LSQ,032228.00,3725.680162,N,12209.398758,W,0.0,0.9,-62.8,0.0,1.5,,,,,,,10,-7.6,25.9*32,1701228148631
NMEA,$PGLOR,6,PWR,mA,20.6,RFTm,694,OscTm,1000,MeasTm,1000,UTC,032228.00,GNSSmA,19.3,CPUTm,203,COPTm,80,COPMargTm,155,Sr*00,1701228148631
NMEA,$PGLOR,0,PPS,291123,032228.000,140170,054428.300,000.100,1,0,1,*1A,1701228148631
NMEA,$PGLOR,2,AGC,G,41.6,R,61.5,B,18.5,E5A,30.6,E5B,,L2,*13,1701228148631
NMEA,$PSSGR,GSA,A,3,06,11,12,13,15,17,19,22,24,,,,1.8,0.9,1.5,1,1*43,1701228148631
NMEA,$PSSGR,GSA,A,3,06,11,24,,,,,,,,,,1.8,0.9,1.5,1,8*41,1701228148631
NMEA,$PSSGR,GSA,A,3,,,,,,,,,,,,,1.8,0.9,1.5,1,9*40,1701228148631
NMEA,$PSSGR,GSA,A,3,75,76,77,85,86,87,,,,,,,1.8,0.9,1.5,2,1*44,1701228148631
NMEA,$PSSGR,GSA,A,3,,,,,,,,,,,,,1.8,0.9,1.5,5,1*4C,1701228148631
NMEA,$PSSGR,GSA,A,3,,,,,,,,,,,,,1.8,0.9,1.5,5,8*45,1701228148631
NMEA,$PSSGR,GSA,A,3,,,,,,,,,,,,,1.8,0.9,1.5,5,9*44,1701228148631
NMEA,$PSSGR,GSA,A,3,,,,,,,,,,,,,1.8,0.9,1.5,4,1*4D,1701228148631
NMEA,$PSSGR,GSA,A,3,,,,,,,,,,,,,1.8,0.9,1.5,4,5*49,1701228148631
NMEA,$PSSGR,GSA,A,3,,,,,,,,,,,,,1.8,0.9,1.5,4,3*4F,1701228148631
NMEA,$PSSGR,GSA,A,3,102,107,115,118,127,130,134,136,,,,,1.8,0.9,1.5,3,7*40,1701228148631
NMEA,$PSSGR,GSA,A,3,107,115,118,127,130,134,136,,,,,,1.8,0.9,1.5,3,1*75,1701228148631
NMEA,$PSSGR,GSA,A,3,,,,,,,,,,,,,1.8,0.9,1.5,6,1*4F,1701228148631
NMEA,$GPGSV,4,1,14,19,65,035,36,24,56,288,44,06,51,140,35,22,39,082,30*74,1701228148631
NMEA,$GPGSV,4,2,14,17,37,046,38,11,27,174,33,12,24,296,44,14,20,094,17*72,1701228148631
NMEA,$GPGSV,4,3,14,13,12,205,31,15,10,239,31*70,1701228148631
NMEA,$GPGSV,4,4,14,24,,,40,06,,,37,11,,,26,14,,,,8*69,1701228148631
NMEA,$GLGSV,2,1,06,86,78,133,35,76,63,358,44,75,40,109,36,85,39,034,43*60,1701228148632
NMEA,$GLGSV,2,2,06,87,28,199,29,77,22,321,39*66,1701228148632
NMEA,$GAGSV,4,1,16,118,85,024,34,130,69,035,31,134,55,096,32,127,37,304,46*6A,1701228148632
NMEA,$GAGSV,4,2,16,115,35,171,38,102,26,093,23,136,21,041,39,107,18,236,37*6E,1701228148632
NMEA,$GAGSV,4,3,16,118,,,34,130,,,32,134,,,32,127,,,33,1*7A,1701228148632
NMEA,$GAGSV,4,4,16,115,,,40,102,,,23,136,,,30,107,,,33,1*70,1701228148632
NMEA,$GPGSA,A,3,06,11,12,13,15,17,19,22,24,,,,1.8,0.9,1.5*3D,1701228148632
NMEA,$GPGSA,A,3,06,11,24,,,,,,,,,,1.8,0.9,1.5,8*22,1701228148632
NMEA,$GPGSA,A,3,,,,,,,,,,,,,1.8,0.9,1.5,9*23,1701228148632
NMEA,$QZGSA,A,3,,,,,,,,,,,,,1.8,0.9,1.5*2A,1701228148632
NMEA,$QZGSA,A,3,,,,,,,,,,,,,1.8,0.9,1.5,8*3E,1701228148632
NMEA,$QZGSA,A,3,,,,,,,,,,,,,1.8,0.9,1.5,9*3F,1701228148632
NMEA,$BDGSA,A,3,,,,,,,,,,,,,1.8,0.9,1.5*27,1701228148632
NMEA,$BDGSA,A,3,,,,,,,,,,,,,1.8,0.9,1.5,5*3E,1701228148632
NMEA,$BDGSA,A,3,,,,,,,,,,,,,1.8,0.9,1.5,3*38,1701228148632
NMEA,$GAGSA,A,3,102,107,115,118,127,130,134,136,,,,,1.8,0.9,1.5*2B,1701228148632
NMEA,$GAGSA,A,3,107,115,118,127,130,134,136,,,,,,1.8,0.9,1.5,1*05,1701228148632
NMEA,$NCGSA,A,3,,,,,,,,,,,,,1.8,0.9,1.5,1*31,1701228148632
NMEA,$GNGSA,A,3,06,11,12,13,15,17,19,22,24,,,,1.8,0.9,1.5*23,1701228148632
NMEA,$GNGSA,A,3,75,76,77,85,86,87,,,,,,,1.8,0.9,1.5*27,1701228148632
NMEA,$PGLOR,1,FIX,1.0,1.0*20,1701228148632
NMEA,$GPRMC,032228.00,A,3725.651377,N,12209.425123,W,000.1,053.7,291123,,,A*46,1701228148632
NMEA,$PGLOR,SPL,20231128192228.6,POS,20231129032228.000,37.427523,-122.157085,3,3,0,-19,3,1.100000*62,1701228148633
NMEA,$GPGGA,032229.00,3725.651361,N,12209.425137,W,1,33,0.3,9.1,M,-28.4,M,,*55,1701228149616
NMEA,$PGLOR,11,STA,032229.00,0.130,0.000,-1049,1,3,3,P,S,L,0,C,3,S,00100002,80,5,R,000833F4,TPeF,41,152945,LC,,,DR,3,0,*00,1701228149616
NMEA,$PGLOR,1,UNC,032229.00,0.007,3.4,3.0,0.13,180.00,3.9,3.3,120.5*21,1701228149617
NMEA,$PGLOR,2,SAT,8,1,E18,25,7AF,R22,30,2F,E30,27,7AF,G19,30,2F,R12,40,2F,G24,40,7AF*7A,1701228149617
NMEA,$PGLOR,2,SAT,8,2,E34,28,7AF,G06,31,7AF,R11,33,2F,G22,25,2B,R21,38,2F,G17,33,2F*3E,1701228149617
NMEA,$PGLOR,2,SAT,8,3,E27,43,7AF,E15,35,7AF,R23,22,2F,G11,28,7AF,E02,19,2002F,G12,37,2F*5E,1701228149617
NMEA,$PGLOR,2,SAT,8,4,R13,34,2F,E36,34,7AF,G14,,20020,E07,31,7AF,G13,25,2B,G15,19,2F*65,1701228149617
NMEA,$PGLOR,2,SAT,8,5,R03,,20,E19,,20,R04,,20,G30,,20,G03,,20,S12,,00*27,1701228149617
NMEA,$PGLOR,2,SAT,8,6,S14,,00,S16,,00,S19,,00,R10,,20,S18,,00,R02,,20*3C,1701228149617
NMEA,$PGLOR,2,SAT,8,7,S17,,00,S09,,00,S10,,00,R20,,20,R01,,20,S04,,00*34,1701228149617
NMEA,$PGLOR,2,SAT,8,8,S08,,00,G31,,20,G32,,20,Q02,,20,Q01,,00,Q04,,20*3C,1701228149617
NMEA,$PGLOR,2,SVC,GPS,0,4,1,14,006,SKUS,SKUS,019,SKUS,SKUS,022,SKUS,SKUS,024,SKPR,SKUS*66,1701228149617
NMEA,$PGLOR,2,SVC,GPS,0,4,2,14,011,SKUS,SKUS,012,SKPR,SKUS,014,SKUS,SKUS,017,CLIN,CLIN*6D,1701228149617
NMEA,$PGLOR,2,SVC,GPS,0,4,3,14,003,SKPR,SKUS,013,SKUS,SKUS,015,CLIN,CLIN,030,CLIN,CLIN*6A,1701228149617
NMEA,$PGLOR,2,SVC,GPS,0,4,4,14,031,CLIN,CLIN,032,CLIN,CLIN*6C,1701228149617
NMEA,$PGLOR,2,SVC,GPS,2,1,1,04,006,SKUS,SKUS,011,SKUS,SKUS,014,SKUS,SKUS,024,CLIN,CLIN*69,1701228149617
NMEA,$PGLOR,2,SVC,SBS,0,3,1,10,044,CLIN,CLIN,046,CLIN,CLIN,048,CLIN,CLIN,051,CLIN,CLIN*65,1701228149617
NMEA,$PGLOR,2,SVC,SBS,0,3,2,10,041,CLIN,CLIN,042,CLIN,CLIN,049,CLIN,CLIN,050,CLIN,CLIN*67,1701228149617
NMEA,$PGLOR,2,SVC,SBS,0,3,3,10,036,CLIN,CLIN,040,CLIN,CLIN*6C,1701228149617
NMEA,$PGLOR,2,SVC,GLO,0,3,1,12,056,SKUS,SKUS,058,SKUS,SKUS,059,SKUS,SKUS,063,SKUS,SKUS*6C,1701228149617
NMEA,$PGLOR,2,SVC,GLO,0,3,2,12,057,SKUS,SKUS,062,SKUS,SKUS,064,CLIN,CLIN,065,CLIN,CLIN*6F,1701228149617
NMEA,$PGLOR,2,SVC,GLO,0,3,3,12,052,CLIN,CLIN,055,CLIN,CLIN,060,CLIN,CLIN,061,CLIN,CLIN*6F,1701228149617
NMEA,$PGLOR,2,SVC,QZS,0,1,1,03,066,CLIN,CLIN,067,CLIN,CLIN,069,CLIN,CLIN*67,1701228149617
NMEA,$PGLOR,2,SVC,GAL,0,3,1,09,156,SKUS,SKUS,165,SKUS,SKUS,168,SKUS,SKUS,172,SKUS,SKUS*64,1701228149617
NMEA,$PGLOR,2,SVC,GAL,0,3,2,09,140,SKUS,SKUS,145,SKUS,SKUS,153,SKUS,SKUS,174,SKUS,SKUS*6C,1701228149617
NMEA,$PGLOR,2,SVC,GAL,0,3,3,09,157,CLIN,CLIN*72,1701228149617
NMEA,$PGLOR,2,SVC,GAL,2,2,1,08,156,SKUS,SKUS,165,SKUS,SKUS,168,SKUS,SKUS,172,SKUS,SKUS*66,1701228149617
NMEA,$PGLOR,2,SVC,GAL,2,2,2,08,140,SKUS,SKUS,145,CLIN,CLIN,153,SKUS,SKUS,174,SKUS,SKUS*6E,1701228149617
NMEA,$PGLOR,2,SIO,TxERR,0,RxERR,0,TxCNT,914,RxCNT,9344,MLFRMPKT,0,DTMS,1004,DTIN,36,50,DTOUT,14,954,HATMD,52*1C,1701228149617
NMEA,$PGLOR,2,HLA,032229.00,L,,Al,,A,,H,,,M,0,Ac,0,Gr,0,S,,,Sx,,,T,0,Tr,,Mn,,Ap,-19,Ta,0,,,Aa,1,Ga,1,*37,1701228149617
NMEA,$PGLOR,3,CTX,032229.00,E,1,1,,,V,2,0,S,,,*72,1701228149617
NMEA,$PGLOR,1,LSQ,032229.00,3725.682824,N,12209.396586,W,0.0,0.9,-61.7,0.0,1.5,,,,,,,10,-7.6,25.9*39,1701228149617
NMEA,$PGLOR,6,PWR,mA,20.4,RFTm,687,OscTm,1000,MeasTm,1000,UTC,032229.00,GNSSmA,19.1,CPUTm,197,COPTm,79,COPMargTm,155,Sr*00,1701228149617
NMEA,$PGLOR,0,PPS,291123,032229.000,140170,054429.300,000.100,1,0,1,*1A,1701228149617
NMEA,$PGLOR,2,AGC,G,43.3,R,62.1,B,18.5,E5A,30.2,E5B,,L2,*17,1701228149618
NMEA,$PSSGR,GSA,A,3,06,11,12,13,15,17,19,22,24,,,,1.8,0.9,1.5,1,1*43,1701228149618
NMEA,$PSSGR,GSA,A,3,06,11,24,,,,,,,,,,1.8,0.9,1.5,1,8*41,1701228149618
NMEA,$PSSGR,GSA,A,3,,,,,,,,,,,,,1.8,0.9,1.5,1,9*40,1701228149618
NMEA,$PSSGR,GSA,A,3,75,76,77,85,86,87,,,,,,,1.8,0.9,1.5,2,1*44,1701228149618
NMEA,$PSSGR,GSA,A,3,,,,,,,,,,,,,1.8,0.9,1.5,5,1*4C,1701228149618
NMEA,$PSSGR,GSA,A,3,,,,,,,,,,,,,1.8,0.9,1.5,5,8*45,1701228149618
NMEA,$PSSGR,GSA,A,3,,,,,,,,,,,,,1.8,0.9,1.5,5,9*44,1701228149618
NMEA,$PSSGR,GSA,A,3,,,,,,,,,,,,,1.8,0.9,1.5,4,1*4D,1701228149618
NMEA,$PSSGR,GSA,A,3,,,,,,,,,,,,,1.8,0.9,1.5,4,5*49,1701228149618
NMEA,$PSSGR,GSA,A,3,,,,,,,,,,,,,1.8,0.9,1.5,4,3*4F,1701228149618
NMEA,$PSSGR,GSA,A,3,102,107,115,118,127,130,134,136,,,,,1.8,0.9,1.5,3,7*40,1701228149618
NMEA,$PSSGR,GSA,A,3,107,115,118,127,130,134,136,,,,,,1.8,0.9,1.5,3,1*75,1701228149618
NMEA,$PSSGR,GSA,A,3,,,,,,,,,,,,,1.8,0.9,1.5,6,1*4F,1701228149618
NMEA,$GPGSV,7,1,28,19,65,035,36,24,56,288,44,06,51,140,35,22,39,082,30*78,1701228149620
NMEA,$GPGSV,7,2,28,17,37,046,38,11,27,174,33,12,24,296,43,14,20,094,18*76,1701228149620
NMEA,$GPGSV,7,3,28,13,12,205,30,15,10,239,30,30,00,148,,03,00,051,*75,1701228149620
NMEA,$GPGSV,7,4,28,44,46,172,,46,46,191,,48,45,198,,51,44,156,*74,1701228149621
NMEA,$GPGSV,7,5,28,50,,,,49,,,,41,,,,42,,,*7A,1701228149621
NMEA,$GPGSV,7,6,28,36,,,,40,,,,31,,,,32,,,*70,1701228149621
NMEA,$GPGSV,7,7,28,24,,,39,06,,,37,11,,,26,14,,,,8*68,1701228149621
NMEA,$GLGSV,3,1,12,86,78,133,34,76,63,358,44,75,40,109,36,85,39,034,42*64,1701228149621
NMEA,$GLGSV,3,2,12,87,28,199,29,77,22,321,39,67,05,302,,68,01,346,*69,1701228149621
NMEA,$GLGSV,3,3,12,74,,,,66,,,,84,,,,65,,,*6A,1701228149621
NMEA,$QZGSV,1,1,03,02,,,,01,,,,04,,,*61,1701228149621
NMEA,$GAGSV,5,1,17,118,85,024,33,130,69,035,31,134,55,096,32,127,37,304,46*6D,1701228149621
NMEA,$GAGSV,5,2,17,115,35,171,38,102,26,093,23,136,21,041,39,107,18,236,37*6E,1701228149621
NMEA,$GAGSV,5,3,17,119,02,329,*6B,1701228149621
NMEA,$GAGSV,5,4,17,118,,,34,130,,,32,134,,,32,127,,,33,1*7D,1701228149621
NMEA,$GAGSV,5,5,17,115,,,40,102,,,23,136,,,29,107,,,33,1*79,1701228149621
NMEA,$GPGSA,A,3,06,11,12,13,15,17,19,22,24,,,,1.8,0.9,1.5*3D,1701228149621
NMEA,$GPGSA,A,3,06,11,24,,,,,,,,,,1.8,0.9,1.5,8*22,1701228149621
NMEA,$GPGSA,A,3,,,,,,,,,,,,,1.8,0.9,1.5,9*23,1701228149621
NMEA,$QZGSA,A,3,,,,,,,,,,,,,1.8,0.9,1.5*2A,1701228149621
NMEA,$QZGSA,A,3,,,,,,,,,,,,,1.8,0.9,1.5,8*3E,1701228149621
NMEA,$QZGSA,A,3,,,,,,,,,,,,,1.8,0.9,1.5,9*3F,1701228149621
NMEA,$BDGSA,A,3,,,,,,,,,,,,,1.8,0.9,1.5*27,1701228149621
NMEA,$BDGSA,A,3,,,,,,,,,,,,,1.8,0.9,1.5,5*3E,1701228149621
NMEA,$BDGSA,A,3,,,,,,,,,,,,,1.8,0.9,1.5,3*38,1701228149621
NMEA,$GAGSA,A,3,102,107,115,118,127,130,134,136,,,,,1.8,0.9,1.5*2B,1701228149621
NMEA,$GAGSA,A,3,107,115,118,127,130,134,136,,,,,,1.8,0.9,1.5,1*05,1701228149621
NMEA,$NCGSA,A,3,,,,,,,,,,,,,1.8,0.9,1.5,1*31,1701228149621
NMEA,$GNGSA,A,3,06,11,12,13,15,17,19,22,24,,,,1.8,0.9,1.5*23,1701228149621
NMEA,$GNGSA,A,3,75,76,77,85,86,87,,,,,,,1.8,0.9,1.5*27,1701228149621
NMEA,$PGLOR,1,FIX,1.0,1.0*20,1701228149621
NMEA,$GPRMC,032229.00,A,3725.651361,N,12209.425137,W,000.1,053.7,291123,,,A*45,1701228149621
NMEA,$PGLOR,SPL,20231128192229.6,POS,20231129032229.000,37.427523,-122.157086,3,3,0,-19,3,1.100000*61,1701228149621
NMEA,$GPGGA,032230.00,3725.651358,N,12209.425141,W,1,33,0.3,9.2,M,-28.4,M,,*55,1701228150639
NMEA,$PGLOR,11,STA,032230.00,0.130,0.000,-1049,1,3,3,P,S,L,0,C,3,S,00100002,80,5,R,000833F4,TPEF,36,153945,LC,,,DR,3,0,*00,1701228150639
NMEA,$PGLOR,1,UNC,032230.00,0.007,3.4,3.0,0.13,180.00,3.9,3.2,123.6*28,1701228150639
NMEA,$PGLOR,2,SAT,4,1,E18,26,7AF,R22,29,2F,E30,27,7AF,G19,29,2F,R12,40,2F,G24,41,7AF*74,1701228150640
NMEA,$PGLOR,2,SAT,4,2,E34,29,7AF,G06,31,7AF,R11,32,2F,R21,38,2F,G22,24,2B,G17,33,2F*33,1701228150640
NMEA,$PGLOR,2,SAT,4,3,E27,42,7AF,E15,35,7AF,R23,22,2F,G11,29,7AF,E02,19,2002B,G12,35,2F*54,1701228150640
NMEA,$PGLOR,2,SAT,4,4,R13,34,2F,E36,34,7AF,G14,,20020,E07,31,7AF,G13,25,2B,G15,17,2F*67,1701228150640
NMEA,$PGLOR,2,SVC,GPS,0,3,1,10,006,SKUS,SKUS,019,SKUS,SKUS,022,SKUS,SKUS,024,SKPR,SKUS*65,1701228150640
NMEA,$PGLOR,2,SVC,GPS,0,3,2,10,011,SKUS,SKUS,012,SKUS,SKUS,014,SKUS,SKUS,017,CLIN,CLIN*6A,1701228150640
NMEA,$PGLOR,2,SVC,GPS,0,3,3,10,013,SKPR,SKUS,015,SKUS,SKUS*69,1701228150640
NMEA,$PGLOR,2,SVC,GPS,2,1,1,04,006,SKUS,SKUS,011,SKUS,SKUS,014,SKUS,SKUS,024,CLIN,CLIN*69,1701228150640
NMEA,$PGLOR,2,SVC,GLO,0,2,1,06,056,SKUS,SKUS,058,SKUS,SKUS,059,SKUS,SKUS,063,SKUS,SKUS*68,1701228150640
NMEA,$PGLOR,2,SVC,GLO,0,2,2,06,057,SKUS,SKUS,062,SKUS,SKUS*6A,1701228150640
NMEA,$PGLOR,2,SVC,GAL,0,2,1,08,156,SKUS,SKUS,165,SKUS,SKUS,168,SKUS,SKUS,172,SKUS,SKUS*64,1701228150640
NMEA,$PGLOR,2,SVC,GAL,0,2,2,08,140,SKUS,SKUS,145,SKUS,SKUS,153,SKUS,SKUS,174,SKUS,SKUS*6C,1701228150641
NMEA,$PGLOR,2,SVC,GAL,2,2,1,08,156,SKUS,SKUS,165,SKUS,SKUS,168,SKUS,SKUS,172,SKUS,SKUS*66,1701228150641
NMEA,$PGLOR,2,SVC,GAL,2,2,2,08,140,SKUS,SKUS,145,CLIN,CLIN,153,SKUS,SKUS,174,SKUS,SKUS*6E,1701228150641
NMEA,$PGLOR,2,SIO,TxERR,0,RxERR,0,TxCNT,897,RxCNT,8653,MLFRMPKT,0,DTMS,998,DTIN,16,52,DTOUT,19,944,HATMD,50*27,1701228150641
NMEA,$PGLOR,2,HLA,032230.00,L,,Al,,A,,H,,,M,1,Ac,0,Gr,0,S,,,Sx,,,T,1,Tr,,Mn,,Ap,-19,Ta,0,,,Aa,1,Ga,1,*3F,1701228150641
NMEA,$PGLOR,3,CTX,032230.00,E,1,1,,,V,2,0,S,,,*7A,1701228150641
NMEA,$PGLOR,1,LSQ,032230.00,3725.676625,N,12209.402545,W,0.0,0.9,-66.1,0.0,1.5,,,,,,,10,-7.7,25.9*30,1701228150641
NMEA,$PGLOR,6,PWR,mA,20.4,RFTm,687,OscTm,1000,MeasTm,1000,UTC,032230.00,GNSSmA,19.1,CPUTm,197,COPTm,78,COPMargTm,156,Sr*00,1701228150641
NMEA,$PGLOR,0,PPS,291123,032230.000,140170,054430.300,000.100,1,0,1,*1A,1701228150641
NMEA,$PGLOR,2,AGC,G,41.6,R,60.5,B,18.5,E5A,29.7,E5B,,L2,*1B,1701228150642
NMEA,$PSSGR,GSA,A,3,06,11,12,13,15,17,19,22,24,,,,1.8,0.9,1.5,1,1*43,1701228150642
NMEA,$PSSGR,GSA,A,3,06,11,24,,,,,,,,,,1.8,0.9,1.5,1,8*41,1701228150642
NMEA,$PSSGR,GSA,A,3,,,,,,,,,,,,,1.8,0.9,1.5,1,9*40,1701228150642
NMEA,$PSSGR,GSA,A,3,75,76,77,85,86,87,,,,,,,1.8,0.9,1.5,2,1*44,1701228150642
NMEA,$PSSGR,GSA,A,3,,,,,,,,,,,,,1.8,0.9,1.5,5,1*4C,1701228150642
NMEA,$PSSGR,GSA,A,3,,,,,,,,,,,,,1.8,0.9,1.5,5,8*45,1701228150642
NMEA,$PSSGR,GSA,A,3,,,,,,,,,,,,,1.8,0.9,1.5,5,9*44,1701228150642
NMEA,$PSSGR,GSA,A,3,,,,,,,,,,,,,1.8,0.9,1.5,4,1*4D,1701228150642
NMEA,$PSSGR,GSA,A,3,,,,,,,,,,,,,1.8,0.9,1.5,4,5*49,1701228150642
NMEA,$PSSGR,GSA,A,3,,,,,,,,,,,,,1.8,0.9,1.5,4,3*4F,1701228150642
NMEA,$PSSGR,GSA,A,3,102,107,115,118,127,130,134,136,,,,,1.8,0.9,1.5,3,7*40,1701228150642
NMEA,$PSSGR,GSA,A,3,107,115,118,127,130,134,136,,,,,,1.8,0.9,1.5,3,1*75,1701228150643
NMEA,$PSSGR,GSA,A,3,,,,,,,,,,,,,1.8,0.9,1.5,6,1*4F,1701228150643
NMEA,$GPGSV,4,1,14,19,65,035,36,24,56,288,45,06,51,140,35,22,39,082,30*75,1701228150643
NMEA,$GPGSV,4,2,14,17,37,046,37,11,27,174,33,12,24,296,43,14,20,094,18*75,1701228150643
NMEA,$GPGSV,4,3,14,13,12,205,30,15,10,239,29*78,1701228150643
NMEA,$GPGSV,4,4,14,24,,,39,06,,,38,11,,,26,14,,,,8*68,1701228150643
NMEA,$GLGSV,2,1,06,86,78,133,34,76,63,358,44,75,40,109,36,85,39,034,42*60,1701228150643
NMEA,$GLGSV,2,2,06,87,28,199,29,77,22,321,39*66,1701228150643
NMEA,$GAGSV,4,1,16,118,85,024,33,130,69,035,31,134,55,096,32,127,37,304,46*6D,1701228150643
NMEA,$GAGSV,4,2,16,115,35,171,38,102,26,093,23,136,21,041,38,107,18,236,37*6F,1701228150644
NMEA,$GAGSV,4,3,16,118,,,34,130,,,31,134,,,32,127,,,34,1*7E,1701228150644
NMEA,$GAGSV,4,4,16,115,,,39,102,,,25,136,,,28,107,,,33,1*71,1701228150644
NMEA,$GPGSA,A,3,06,11,12,13,15,17,19,22,24,,,,1.8,0.9,1.5*3D,1701228150644
NMEA,$GPGSA,A,3,06,11,24,,,,,,,,,,1.8,0.9,1.5,8*22,1701228150644
NMEA,$GPGSA,A,3,,,,,,,,,,,,,1.8,0.9,1.5,9*23,1701228150644
NMEA,$QZGSA,A,3,,,,,,,,,,,,,1.8,0.9,1.5*2A,1701228150644
NMEA,$QZGSA,A,3,,,,,,,,,,,,,1.8,0.9,1.5,8*3E,1701228150644
NMEA,$QZGSA,A,3,,,,,,,,,,,,,1.8,0.9,1.5,9*3F,1701228150644
NMEA,$BDGSA,A,3,,,,,,,,,,,,,1.8,0.9,1.5*27,1701228150644
NMEA,$BDGSA,A,3,,,,,,,,,,,,,1.8,0.9,1.5,5*3E,1701228150644
NMEA,$BDGSA,A,3,,,,,,,,,,,,,1.8,0.9,1.5,3*38,1701228150644
NMEA,$GAGSA,A,3,102,107,115,118,127,130,134,136,,,,,1.8,0.9,1.5*2B,1701228150645
NMEA,$GAGSA,A,3,107,115,118,127,130,134,136,,,,,,1.8,0.9,1.5,1*05,1701228150645
NMEA,$NCGSA,A,3,,,,,,,,,,,,,1.8,0.9,1.5,1*31,1701228150645
NMEA,$GNGSA,A,3,06,11,12,13,15,17,19,22,24,,,,1.8,0.9,1.5*23,1701228150645
NMEA,$GNGSA,A,3,75,76,77,85,86,87,,,,,,,1.8,0.9,1.5*27,1701228150645
NMEA,$PGLOR,1,FIX,1.0,1.0*20,1701228150645
NMEA,$GPRMC,032230.00,A,3725.651358,N,12209.425141,W,000.1,053.7,291123,,,A*46,1701228150645
NMEA,$PGLOR,SPL,20231128192230.6,POS,20231129032230.000,37.427523,-122.157086,3,3,0,-19,3,1.100000*61,1701228150646
NMEA,$GPGGA,032231.00,3725.651354,N,12209.425149,W,1,32,0.3,9.3,M,-28.4,M,,*50,1701228151642
NMEA,$PGLOR,11,STA,032231.00,0.130,0.000,-1049,1,3,3,P,S,L,0,C,3,S,00100002,80,5,R,000833F4,TPEF,36,154945,LC,,,DR,3,0,*00,1701228151643
NMEA,$PGLOR,1,UNC,032231.00,0.007,3.4,3.0,0.13,180.00,3.9,3.3,128.5*20,1701228151643
NMEA,$PGLOR,2,SAT,4,1,E18,28,7AF,R22,32,2F,E30,29,7AF,G19,29,2F,R12,40,2F,G24,40,7AF*7F,1701228151643
NMEA,$PGLOR,2,SAT,4,2,E34,28,7AF,G06,31,7AF,R11,33,2F,R21,37,2F,G22,24,2F,G17,32,2F*39,1701228151643
NMEA,$PGLOR,2,SAT,4,3,E27,42,7AF,E15,35,7AF,R23,33,2F,G11,27,7AF,E02,19,2002B,G12,34,2F*5B,1701228151643
NMEA,$PGLOR,2,SAT,4,4,R13,34,2F,E36,33,2002F,G14,,20020,E07,28,7AF,G13,24,2B,G15,25,2F*1E,1701228151643
NMEA,$PGLOR,2,SVC,GPS,0,3,1,10,006,SKUS,SKUS,019,SKUS,SKUS,022,SKUS,SKUS,024,SKPR,SKUS*65,1701228151643
NMEA,$PGLOR,2,SVC,GPS,0,3,2,10,011,SKUS,SKUS,012,SKUS,SKUS,014,SKUS,SKUS,017,CLIN,CLIN*6A,1701228151643
NMEA,$PGLOR,2,SVC,GPS,0,3,3,10,013,SKPR,SKUS,015,SKUS,SKUS*69,1701228151643
NMEA,$PGLOR,2,SVC,GPS,2,1,1,04,006,SKUS,SKUS,011,SKUS,SKUS,014,SKUS,SKUS,024,CLIN,CLIN*69,1701228151644
NMEA,$PGLOR,2,SVC,GLO,0,2,1,06,056,SKUS,SKUS,058,SKUS,SKUS,059,SKUS,SKUS,063,SKUS,SKUS*68,1701228151644
NMEA,$PGLOR,2,SVC,GLO,0,2,2,06,057,SKUS,SKUS,062,SKUS,SKUS*6A,1701228151644
NMEA,$PGLOR,2,SVC,GAL,0,2,1,08,156,SKUS,SKUS,165,SKUS,SKUS,168,SKUS,SKUS,172,SKUS,SKUS*64,1701228151644
NMEA,$PGLOR,2,SVC,GAL,0,2,2,08,140,SKUS,SKUS,145,SKPR,SKUS,153,SKUS,SKUS,174,SKUS,SKUS*68,1701228151644
NMEA,$PGLOR,2,SVC,GAL,2,2,1,08,156,SKUS,SKUS,165,SKUS,SKUS,168,SKUS,SKUS,172,SKUS,SKUS*66,1701228151644
NMEA,$PGLOR,2,SVC,GAL,2,2,2,08,140,SKUS,SKUS,145,CLIN,CLIN,153,SKUS,SKUS,174,SKUS,SKUS*6E,1701228151644
NMEA,$PGLOR,2,SIO,TxERR,0,RxERR,0,TxCNT,748,RxCNT,8641,MLFRMPKT,0,DTMS,999,DTIN,48,69,DTOUT,10,929,HATMD,49*21,1701228151644
NMEA,$PGLOR,2,HLA,032231.00,L,,Al,,A,,H,,,M,1,Ac,0,Gr,0,S,,,Sx,,,T,1,Tr,,Mn,,Ap,-20,Ta,0,,,Aa,1,Ga,1,*34,1701228151644
NMEA,$PGLOR,3,CTX,032231.00,E,1,1,,,V,2,0,S,,,*7B,1701228151644
NMEA,$PGLOR,1,LSQ,032231.00,3725.659700,N,12209.417845,W,13.3,1.9,-48.4,23.7,3.4,,,,,,,09,-7.7,26.2*3F,1701228151644
NMEA,$PGLOR,6,PWR,mA,20.4,RFTm,687,OscTm,1000,MeasTm,1000,UTC,032231.00,GNSSmA,19.1,CPUTm,193,COPTm,78,COPMargTm,155,Sr*00,1701228151644
NMEA,$PGLOR,0,PPS,291123,032231.000,140170,054431.300,000.100,1,0,1,*1A,1701228151645
NMEA,$PGLOR,2,AGC,G,42.0,R,61.1,B,18.5,E5A,29.9,E5B,,L2,*15,1701228151645
NMEA,$PSSGR,GSA,A,3,06,11,12,13,15,17,19,22,24,,,,1.7,0.9,1.4,1,1*4D,1701228151645
NMEA,$PSSGR,GSA,A,3,06,11,24,,,,,,,,,,1.7,0.9,1.4,1,8*4F,1701228151645
NMEA,$PSSGR,GSA,A,3,,,,,,,,,,,,,1.7,0.9,1.4,1,9*4E,1701228151645
NMEA,$PSSGR,GSA,A,3,75,76,77,85,86,87,,,,,,,1.7,0.9,1.4,2,1*4A,1701228151645
NMEA,$PSSGR,GSA,A,3,,,,,,,,,,,,,1.7,0.9,1.4,5,1*42,1701228151645
NMEA,$PSSGR,GSA,A,3,,,,,,,,,,,,,1.7,0.9,1.4,5,8*4B,1701228151645
NMEA,$PSSGR,GSA,A,3,,,,,,,,,,,,,1.7,0.9,1.4,5,9*4A,1701228151646
NMEA,$PSSGR,GSA,A,3,,,,,,,,,,,,,1.7,0.9,1.4,4,1*43,1701228151646
NMEA,$PSSGR,GSA,A,3,,,,,,,,,,,,,1.7,0.9,1.4,4,5*47,1701228151646
NMEA,$PSSGR,GSA,A,3,,,,,,,,,,,,,1.7,0.9,1.4,4,3*41,1701228151646
NMEA,$PSSGR,GSA,A,3,102,107,115,118,127,130,134,136,,,,,1.7,0.9,1.4,3,7*4E,1701228151646
NMEA,$PSSGR,GSA,A,3,107,115,118,127,130,134,,,,,,,1.7,0.9,1.4,3,1*4F,1701228151646
NMEA,$PSSGR,GSA,A,3,,,,,,,,,,,,,1.7,0.9,1.4,6,1*41,1701228151646
NMEA,$GPGSV,4,1,14,19,65,035,35,24,56,288,44,06,51,140,35,22,39,082,29*7F,1701228151646
NMEA,$GPGSV,4,2,14,17,37,046,37,11,27,174,32,12,24,296,42,14,20,094,18*75,1701228151646
NMEA,$GPGSV,4,3,14,13,12,205,30,15,10,239,29*78,1701228151646
NMEA,$GPGSV,4,4,14,24,,,39,06,,,37,11,,,30,14,,,,8*60,1701228151646
NMEA,$GLGSV,2,1,06,86,78,133,35,76,63,358,44,75,40,109,36,85,39,034,42*61,1701228151646
NMEA,$GLGSV,2,2,06,87,28,199,37,77,22,321,39*69,1701228151646
NMEA,$GAGSV,4,1,16,118,85,024,33,130,69,035,33,134,55,096,32,127,37,304,46*6F,1701228151647
NMEA,$GAGSV,4,2,16,115,35,171,39,102,26,093,23,136,21,041,38,107,18,236,36*6F,1701228151647
NMEA,$GAGSV,4,3,16,118,,,35,130,,,32,134,,,32,127,,,35,1*7D,1701228151647
NMEA,$GAGSV,4,4,16,115,,,40,102,,,25,136,,,28,107,,,32,1*7E,1701228151647
NMEA,$GPGSA,A,3,06,11,12,13,15,17,19,22,24,,,,1.7,0.9,1.4*33,1701228151647
NMEA,$GPGSA,A,3,06,11,24,,,,,,,,,,1.7,0.9,1.4,8*2C,1701228151647
NMEA,$GPGSA,A,3,,,,,,,,,,,,,1.7,0.9,1.4,9*2D,1701228151647
NMEA,$QZGSA,A,3,,,,,,,,,,,,,1.7,0.9,1.4*24,1701228151647
NMEA,$QZGSA,A,3,,,,,,,,,,,,,1.7,0.9,1.4,8*30,1701228151647
NMEA,$QZGSA,A,3,,,,,,,,,,,,,1.7,0.9,1.4,9*31,1701228151647
NMEA,$BDGSA,A,3,,,,,,,,,,,,,1.7,0.9,1.4*29,1701228151647
NMEA,$BDGSA,A,3,,,,,,,,,,,,,1.7,0.9,1.4,5*30,1701228151647
NMEA,$BDGSA,A,3,,,,,,,,,,,,,1.7,0.9,1.4,3*36,1701228151647
NMEA,$GAGSA,A,3,102,107,115,118,127,130,134,136,,,,,1.7,0.9,1.4*25,1701228151648
NMEA,$GAGSA,A,3,107,115,118,127,130,134,,,,,,,1.7,0.9,1.4,1*3F,1701228151648
NMEA,$NCGSA,A,3,,,,,,,,,,,,,1.7,0.9,1.4,1*3F,1701228151648
NMEA,$GNGSA,A,3,06,11,12,13,15,17,19,22,24,,,,1.7,0.9,1.4*2D,1701228151648
NMEA,$GNGSA,A,3,75,76,77,85,86,87,,,,,,,1.7,0.9,1.4*29,1701228151648
NMEA,$PGLOR,1,FIX,1.0,1.0*20,1701228151648
NMEA,$GPRMC,032231.00,A,3725.651354,N,12209.425149,W,000.1,053.7,291123,,,A*43,1701228151648
NMEA,$PGLOR,SPL,20231128192231.6,POS,20231129032231.000,37.427523,-122.157086,3,3,0,-19,3,1.100000*61,1701228151649
NMEA,$GPGGA,032232.00,3725.651322,N,12209.425205,W,1,32,0.3,9.3,M,-28.4,M,,*59,1701228152624
NMEA,$PGLOR,11,STA,032232.00,0.130,0.000,-1049,1,3,3,P,S,L,0,C,2,S,00100002,80,5,R,000833F4,TPEF,36,155945,LC,,,DR,3,0,*00,1701228152624
NMEA,$PGLOR,1,UNC,032232.00,0.007,3.5,3.0,0.13,180.00,4.0,3.3,133.7*24,1701228152624
NMEA,$PGLOR,2,SAT,4,1,E18,28,7AF,R22,31,2F,E30,29,7AF,G19,27,2F,R12,40,2F,G24,39,7AF*7C,1701228152624
NMEA,$PGLOR,2,SAT,4,2,E34,26,7AF,G06,33,7AF,R11,34,2F,R21,35,2F,G22,24,2F,G17,31,2F*33,1701228152624
NMEA,$PGLOR,2,SAT,4,3,E27,39,7AF,E15,35,7AF,R23,38,2F,G11,26,7AF,E02,17,2002B,G12,32,2F*55,1701228152624
NMEA,$PGLOR,2,SAT,4,4,R13,34,2F,E36,33,2002F,G14,13,20020,E07,31,7AF,G13,27,2B,G15,21,2F*13,1701228152624
NMEA,$PGLOR,2,SVC,GPS,0,3,1,10,006,SKUS,SKUS,019,SKUS,SKUS,022,SKUS,SKUS,024,SKUS,SKUS*61,1701228152624
NMEA,$PGLOR,2,SVC,GPS,0,3,2,10,011,SKUS,SKUS,012,SKUS,SKUS,014,SKUS,SKUS,017,CLIN,CLIN*6A,1701228152624
NMEA,$PGLOR,2,SVC,GPS,0,3,3,10,013,SKPR,SKUS,015,SKUS,SKUS*69,1701228152624
NMEA,$PGLOR,2,SVC,GPS,2,1,1,04,006,SKUS,SKUS,011,SKUS,SKUS,014,SKUS,SKUS,024,CLIN,CLIN*69,1701228152624
NMEA,$PGLOR,2,SVC,GLO,0,2,1,06,056,SKUS,SKUS,058,SKUS,SKUS,059,SKUS,SKUS,063,SKUS,SKUS*68,1701228152624
NMEA,$PGLOR,2,SVC,GLO,0,2,2,06,057,SKUS,SKUS,062,SKUS,SKUS*6A,1701228152624
NMEA,$PGLOR,2,SVC,GAL,0,2,1,08,156,SKUS,SKUS,165,SKUS,SKUS,168,SKUS,SKUS,172,SKUS,SKUS*64,1701228152624
NMEA,$PGLOR,2,SVC,GAL,0,2,2,08,140,SKUS,SKUS,145,SKPR,SKUS,153,SKUS,SKUS,174,SKUS,SKUS*68,1701228152624
NMEA,$PGLOR,2,SVC,GAL,2,2,1,08,156,SKUS,SKUS,165,SKUS,SKUS,168,SKUS,SKUS,172,SKUS,SKUS*66,1701228152624
NMEA,$PGLOR,2,SVC,GAL,2,2,2,08,140,SKUS,SKUS,145,CLIN,CLIN,153,CLIN,CLIN,174,SKUS,SKUS*6E,1701228152624
NMEA,$PGLOR,2,SIO,TxERR,0,RxERR,0,TxCNT,754,RxCNT,8649,MLFRMPKT,0,DTMS,1001,DTIN,52,78,DTOUT,19,922,HATMD,50*1C,1701228152624
NMEA,$PGLOR,2,HLA,032232.00,L,,Al,,A,,H,,,M,0,Ac,0,Gr,0,S,,,Sx,,,T,0,Tr,,Mn,,Ap,-20,Ta,0,,,Aa,1,Ga,1,*37,1701228152624
NMEA,$PGLOR,3,CTX,032232.00,E,1,1,,,V,2,0,S,,,*78,1701228152625
NMEA,$PGLOR,1,LSQ,032232.00,3725.659267,N,12209.418140,W,11.7,1.9,-45.7,20.9,3.4,,,,,,,09,-7.8,26.4*37,1701228152625
NMEA,$PGLOR,6,PWR,mA,20.4,RFTm,688,OscTm,1000,MeasTm,1000,UTC,032232.00,GNSSmA,19.1,CPUTm,197,COPTm,76,COPMargTm,154,Sr*00,1701228152625
NMEA,$PGLOR,0,PPS,291123,032232.000,140170,054432.300,000.100,1,0,1,*1A,1701228152625
NMEA,$PGLOR,2,AGC,G,42.3,R,60.7,B,18.5,E5A,31.0,E5B,,L2,*11,1701228152625
NMEA,$PSSGR,GSA,A,3,06,11,12,13,15,17,19,22,24,,,,1.7,0.9,1.4,1,1*4D,1701228152625
NMEA,$PSSGR,GSA,A,3,06,11,24,,,,,,,,,,1.7,0.9,1.4,1,8*4F,1701228152625
NMEA,$PSSGR,GSA,A,3,,,,,,,,,,,,,1.7,0.9,1.4,1,9*4E,1701228152625
NMEA,$PSSGR,GSA,A,3,75,76,77,85,86,87,,,,,,,1.7,0.9,1.4,2,1*4A,1701228152625
NMEA,$PSSGR,GSA,A,3,,,,,,,,,,,,,1.7,0.9,1.4,5,1*42,1701228152625
NMEA,$PSSGR,GSA,A,3,,,,,,,,,,,,,1.7,0.9,1.4,5,8*4B,1701228152625
NMEA,$PSSGR,GSA,A,3,,,,,,,,,,,,,1.7,0.9,1.4,5,9*4A,1701228152625
NMEA,$PSSGR,GSA,A,3,,,,,,,,,,,,,1.7,0.9,1.4,4,1*43,1701228152625
NMEA,$PSSGR,GSA,A,3,,,,,,,,,,,,,1.7,0.9,1.4,4,5*47,1701228152625
NMEA,$PSSGR,GSA,A,3,,,,,,,,,,,,,1.7,0.9,1.4,4,3*41,1701228152625
NMEA,$PSSGR,GSA,A,3,102,107,115,118,127,130,134,136,,,,,1.7,0.9,1.4,3,7*4E,1701228152625
NMEA,$PSSGR,GSA,A,3,107,115,118,127,130,134,,,,,,,1.7,0.9,1.4,3,1*4F,1701228152625
NMEA,$PSSGR,GSA,A,3,,,,,,,,,,,,,1.7,0.9,1.4,6,1*41,1701228152625
NMEA,$GPGSV,4,1,14,19,65,035,35,24,56,288,44,06,51,140,36,22,39,082,29*7C,1701228152625
NMEA,$GPGSV,4,2,14,17,37,046,37,11,27,174,32,12,24,296,42,14,20,094,18*75,1701228152625
NMEA,$GPGSV,4,3,14,13,12,205,31,15,10,239,29*79,1701228152625
NMEA,$GPGSV,4,4,14,24,,,39,06,,,37,11,,,32,14,,,20,8*60,1701228152625
NMEA,$GLGSV,2,1,06,86,78,133,35,76,63,358,44,75,40,109,38,85,39,034,42*6F,1701228152625
NMEA,$GLGSV,2,2,06,87,28,199,42,77,22,321,38*6A,1701228152625
NMEA,$GAGSV,4,1,16,118,85,024,33,130,69,035,33,134,55,096,32,127,37,304,46*6F,1701228152625
NMEA,$GAGSV,4,2,16,115,35,171,39,102,26,093,23,136,21,041,38,107,18,236,36*6F,1701228152625
NMEA,$GAGSV,4,3,16,118,,,35,130,,,34,134,,,33,127,,,35,1*7A,1701228152625
NMEA,$GAGSV,4,4,16,115,,,40,102,,,24,136,,,27,107,,,39,1*7B,1701228152625
NMEA,$GPGSA,A,3,06,11,12,13,15,17,19,22,24,,,,1.7,0.9,1.4*33,1701228152625
NMEA,$GPGSA,A,3,06,11,24,,,,,,,,,,1.7,0.9,1.4,8*2C,1701228152625
NMEA,$GPGSA,A,3,,,,,,,,,,,,,1.7,0.9,1.4,9*2D,1701228152625
NMEA,$QZGSA,A,3,,,,,,,,,,,,,1.7,0.9,1.4*24,1701228152625
NMEA,$QZGSA,A,3,,,,,,,,,,,,,1.7,0.9,1.4,8*30,1701228152625
NMEA,$QZGSA,A,3,,,,,,,,,,,,,1.7,0.9,1.4,9*31,1701228152625
NMEA,$BDGSA,A,3,,,,,,,,,,,,,1.7,0.9,1.4*29,1701228152625
NMEA,$BDGSA,A,3,,,,,,,,,,,,,1.7,0.9,1.4,5*30,1701228152625
NMEA,$BDGSA,A,3,,,,,,,,,,,,,1.7,0.9,1.4,3*36,1701228152625
NMEA,$GAGSA,A,3,102,107,115,118,127,130,134,136,,,,,1.7,0.9,1.4*25,1701228152625
NMEA,$GAGSA,A,3,107,115,118,127,130,134,,,,,,,1.7,0.9,1.4,1*3F,1701228152625
NMEA,$NCGSA,A,3,,,,,,,,,,,,,1.7,0.9,1.4,1*3F,1701228152625
NMEA,$GNGSA,A,3,06,11,12,13,15,17,19,22,24,,,,1.7,0.9,1.4*2D,1701228152625
NMEA,$GNGSA,A,3,75,76,77,85,86,87,,,,,,,1.7,0.9,1.4*29,1701228152625
NMEA,$PGLOR,1,FIX,1.0,1.0*20,1701228152625
NMEA,$GPRMC,032232.00,A,3725.651322,N,12209.425205,W,000.1,053.7,291123,,,A*4A,1701228152625
NMEA,$PGLOR,SPL,20231128192232.6,POS,20231129032232.000,37.427522,-122.157087,3,3,0,-19,3,1.100000*61,1701228152626
NMEA,$GPGGA,032233.00,3725.651253,N,12209.425274,W,1,33,0.3,9.3,M,-28.4,M,,*58,1701228153645
NMEA,$PGLOR,11,STA,032233.00,0.130,0.000,-1048,1,3,3,P,S,L,0,C,2,S,00100002,80,5,R,000833F4,TPEF,36,156945,LC,,,DR,3,0,*00,1701228153646
NMEA,$PGLOR,1,UNC,032233.00,0.007,3.5,3.0,0.12,180.00,3.9,3.3,133.8*25,1701228153646
NMEA,$PGLOR,2,SAT,4,1,E18,29,7AF,R22,31,2F,E30,28,7AF,G19,27,2F,R12,40,2F,G24,39,7AF*7C,1701228153646
NMEA,$PGLOR,2,SAT,4,2,E34,25,7AF,G06,32,7AF,R11,34,2F,R21,35,2F,G22,22,2F,G17,31,2F*37,1701228153646
NMEA,$PGLOR,2,SAT,4,3,E27,41,7AF,E15,36,7AF,R23,38,2F,G11,26,7AF,E02,16,7AB,G12,33,2F*2F,1701228153646
NMEA,$PGLOR,2,SAT,4,4,R13,31,2F,E36,,2002F,G14,12,20020,E07,34,7AF,G13,28,2B,G15,19,2F*16,1701228153646
NMEA,$PGLOR,2,SVC,GPS,0,3,1,10,006,SKUS,SKUS,019,SKUS,SKUS,022,SKUS,SKUS,024,SKUS,SKUS*61,1701228153646
NMEA,$PGLOR,2,SVC,GPS,0,3,2,10,011,SKUS,SKUS,012,SKUS,SKUS,014,SKUS,SKUS,017,CLIN,CLIN*6A,1701228153646
NMEA,$PGLOR,2,SVC,GPS,0,3,3,10,013,SKPR,SKUS,015,SKUS,SKUS*69,1701228153646
NMEA,$PGLOR,2,SVC,GPS,2,1,1,04,006,SKUS,SKUS,011,SKUS,SKUS,014,SKUS,SKUS,024,CLIN,CLIN*69,1701228153646
NMEA,$PGLOR,2,SVC,GLO,0,2,1,06,056,SKUS,SKUS,058,SKUS,SKUS,059,SKUS,SKUS,063,SKUS,SKUS*68,1701228153646
NMEA,$PGLOR,2,SVC,GLO,0,2,2,06,057,SKUS,SKUS,062,SKUS,SKUS*6A,1701228153646
NMEA,$PGLOR,2,SVC,GAL,0,2,1,08,156,SKUS,SKUS,165,SKUS,SKUS,168,SKUS,SKUS,172,SKUS,SKUS*64,1701228153646
NMEA,$PGLOR,2,SVC,GAL,0,2,2,08,140,SKUS,SKUS,145,SKPR,SKUS,153,SKUS,SKUS,174,SKUS,SKUS*68,1701228153647
NMEA,$PGLOR,2,SVC,GAL,2,2,1,08,156,SKUS,SKUS,165,SKUS,SKUS,168,SKUS,SKUS,172,SKUS,SKUS*66,1701228153647
NMEA,$PGLOR,2,SVC,GAL,2,2,2,08,140,SKUS,SKUS,145,CLIN,CLIN,153,CLIN,CLIN,174,SKUS,SKUS*6E,1701228153647
NMEA,$PGLOR,2,SIO,TxERR,0,RxERR,0,TxCNT,745,RxCNT,8666,MLFRMPKT,0,DTMS,998,DTIN,27,48,DTOUT,18,950,HATMD,48*25,1701228153647
NMEA,$PGLOR,2,HLA,032233.00,L,,Al,,A,,H,,,M,0,Ac,0,Gr,0,S,,,Sx,,,T,0,Tr,,Mn,,Ap,-20,Ta,0,,,Aa,1,Ga,1,*36,1701228153647
NMEA,$PGLOR,3,CTX,032233.00,E,1,1,,,V,2,0,S,,,*79,1701228153647
NMEA,$PGLOR,1,LSQ,032233.00,3725.689919,N,12209.382491,W,0.0,1.1,-93.0,0.0,1.8,,,,,,,10,-7.8,26.2*3C,1701228153647
NMEA,$PGLOR,6,PWR,mA,20.5,RFTm,691,OscTm,1000,MeasTm,1000,UTC,032233.00,GNSSmA,19.2,CPUTm,200,COPTm,79,COPMargTm,154,Sr*00,1701228153647
NMEA,$PGLOR,0,PPS,291123,032233.000,140170,054433.300,000.100,1,0,1,*1A,1701228153647
NMEA,$PGLOR,2,AGC,G,42.7,R,61.8,B,18.5,E5A,31.1,E5B,,L2,*1A,1701228153647
NMEA,$PSSGR,GSA,A,3,06,11,12,13,15,17,19,22,24,,,,1.7,0.9,1.4,1,1*4D,1701228153647
NMEA,$PSSGR,GSA,A,3,06,11,24,,,,,,,,,,1.7,0.9,1.4,1,8*4F,1701228153647
NMEA,$PSSGR,GSA,A,3,,,,,,,,,,,,,1.7,0.9,1.4,1,9*4E,1701228153647
NMEA,$PSSGR,GSA,A,3,75,76,77,85,86,87,,,,,,,1.7,0.9,1.4,2,1*4A,1701228153647
NMEA,$PSSGR,GSA,A,3,,,,,,,,,,,,,1.7,0.9,1.4,5,1*42,1701228153647
NMEA,$PSSGR,GSA,A,3,,,,,,,,,,,,,1.7,0.9,1.4,5,8*4B,1701228153648
NMEA,$PSSGR,GSA,A,3,,,,,,,,,,,,,1.7,0.9,1.4,5,9*4A,1701228153648
NMEA,$PSSGR,GSA,A,3,,,,,,,,,,,,,1.7,0.9,1.4,4,1*43,1701228153648
NMEA,$PSSGR,GSA,A,3,,,,,,,,,,,,,1.7,0.9,1.4,4,5*47,1701228153648
NMEA,$PSSGR,GSA,A,3,,,,,,,,,,,,,1.7,0.9,1.4,4,3*41,1701228153648
NMEA,$PSSGR,GSA,A,3,102,107,115,118,127,130,134,136,,,,,1.7,0.9,1.4,3,7*4E,1701228153648
NMEA,$PSSGR,GSA,A,3,102,107,115,118,127,130,134,,,,,,1.7,0.9,1.4,3,1*7C,1701228153648
NMEA,$PSSGR,GSA,A,3,,,,,,,,,,,,,1.7,0.9,1.4,6,1*41,1701228153648
NMEA,$GPGSV,4,1,14,19,65,035,34,24,56,288,44,06,51,140,36,22,39,082,29*7D,1701228153648
NMEA,$GPGSV,4,2,14,17,37,046,37,11,27,174,32,12,24,296,41,14,20,095,18*77,1701228153649
NMEA,$GPGSV,4,3,14,13,12,205,32,15,10,239,28*7B,1701228153649
NMEA,$GPGSV,4,4,14,24,,,39,06,,,36,11,,,32,14,,,20,8*61,1701228153649
NMEA,$GLGSV,2,1,06,86,78,133,35,76,63,358,44,75,40,109,38,85,39,034,42*6F,1701228153649
NMEA,$GLGSV,2,2,06,87,28,199,42,77,22,321,38*6A,1701228153649
NMEA,$GAGSV,4,1,16,118,85,024,33,130,69,035,33,134,55,096,32,127,37,304,46*6F,1701228153649
NMEA,$GAGSV,4,2,16,115,35,171,39,102,26,093,22,136,21,041,38,107,18,236,37*6F,1701228153649
NMEA,$GAGSV,4,3,16,118,,,35,130,,,33,134,,,33,127,,,35,1*7D,1701228153649
NMEA,$GAGSV,4,4,16,115,,,40,102,,,24,136,,,,107,,,41,1*71,1701228153649
NMEA,$GPGSA,A,3,06,11,12,13,15,17,19,22,24,,,,1.7,0.9,1.4*33,1701228153649
NMEA,$GPGSA,A,3,06,11,24,,,,,,,,,,1.7,0.9,1.4,8*2C,1701228153649
NMEA,$GPGSA,A,3,,,,,,,,,,,,,1.7,0.9,1.4,9*2D,1701228153649
NMEA,$QZGSA,A,3,,,,,,,,,,,,,1.7,0.9,1.4*24,1701228153649
NMEA,$QZGSA,A,3,,,,,,,,,,,,,1.7,0.9,1.4,8*30,1701228153649
NMEA,$QZGSA,A,3,,,,,,,,,,,,,1.7,0.9,1.4,9*31,1701228153649
NMEA,$BDGSA,A,3,,,,,,,,,,,,,1.7,0.9,1.4*29,1701228153649
NMEA,$BDGSA,A,3,,,,,,,,,,,,,1.7,0.9,1.4,5*30,1701228153649
NMEA,$BDGSA,A,3,,,,,,,,,,,,,1.7,0.9,1.4,3*36,1701228153649
NMEA,$GAGSA,A,3,102,107,115,118,127,130,134,136,,,,,1.7,0.9,1.4*25,1701228153649
NMEA,$GAGSA,A,3,102,107,115,118,127,130,134,,,,,,1.7,0.9,1.4,1*0C,1701228153649
NMEA,$NCGSA,A,3,,,,,,,,,,,,,1.7,0.9,1.4,1*3F,1701228153649
NMEA,$GNGSA,A,3,06,11,12,13,15,17,19,22,24,,,,1.7,0.9,1.4*2D,1701228153649
NMEA,$GNGSA,A,3,75,76,77,85,86,87,,,,,,,1.7,0.9,1.4*29,1701228153649
NMEA,$PGLOR,1,FIX,1.0,1.0*20,1701228153649
NMEA,$GPRMC,032233.00,A,3725.651253,N,12209.425274,W,000.1,053.7,291123,,,A*4A,1701228153649
NMEA,$PGLOR,SPL,20231128192233.6,POS,20231129032233.000,37.427521,-122.157088,3,3,0,-19,3,1.100000*6D,1701228153650
NMEA,$GPGGA,032234.00,3725.651176,N,12209.425297,W,1,32,0.3,9.2,M,-28.4,M,,*56,1701228154628
NMEA,$PGLOR,11,STA,032234.00,0.130,0.000,-1048,1,3,3,P,S,L,0,C,2,S,00100002,80,5,R,000833F4,TPeF,41,157945,LC,,,DR,3,0,*00,1701228154628
NMEA,$PGLOR,1,UNC,032234.00,0.007,3.5,3.0,0.12,180.00,4.0,3.3,137.5*25,1701228154628
NMEA,$PGLOR,2,SAT,8,1,E18,31,7AF,R22,31,2F,E30,28,7AF,G19,26,2F,R12,40,2F,G24,40,7AF*76,1701228154628
NMEA,$PGLOR,2,SAT,8,2,E34,27,7AF,G06,31,7AF,R11,33,2F,G22,20,2F,R21,32,2F,G17,31,2F*38,1701228154628
NMEA,$PGLOR,2,SAT,8,3,E27,42,7AF,E15,35,7AF,R23,38,2F,G11,28,7AF,E02,15,7A3,G12,31,2F*5D,1701228154629
NMEA,$PGLOR,2,SAT,8,4,R13,31,2F,E36,,2002F,G14,,20020,E07,34,7AF,G13,29,2B,G15,17,2F*16,1701228154629
NMEA,$PGLOR,2,SAT,8,5,R03,,20,E19,,20,R04,,20,G30,,20,G03,,20,S12,,00*27,1701228154629
NMEA,$PGLOR,2,SAT,8,6,S14,,00,S16,,00,S19,,00,R10,,20,S18,,00,R02,,20*3C,1701228154629
NMEA,$PGLOR,2,SAT,8,7,S17,,00,S09,,00,S10,,00,R20,,20,R01,,20,S04,,00*34,1701228154629
NMEA,$PGLOR,2,SAT,8,8,S08,,00,G31,,20,G32,,20,Q02,,20,Q01,,00,Q04,,20*3C,1701228154629
NMEA,$PGLOR,2,SVC,GPS,0,4,1,14,006,SKUS,SKUS,019,SKUS,SKUS,022,SKUS,SKUS,024,SKUS,SKUS*62,1701228154629
NMEA,$PGLOR,2,SVC,GPS,0,4,2,14,011,SKUS,SKUS,012,SKUS,SKUS,014,SKUS,SKUS,017,CLIN,CLIN*69,1701228154629
NMEA,$PGLOR,2,SVC,GPS,0,4,3,14,003,SKPR,SKUS,013,SKUS,SKUS,015,CLIN,CLIN,030,CLIN,CLIN*6A,1701228154629
NMEA,$PGLOR,2,SVC,GPS,0,4,4,14,031,CLIN,CLIN,032,CLIN,CLIN*6C,1701228154629
NMEA,$PGLOR,2,SVC,GPS,2,1,1,04,006,SKUS,SKUS,011,SKUS,SKUS,014,SKUS,SKUS,024,CLIN,CLIN*69,1701228154629
NMEA,$PGLOR,2,SVC,SBS,0,3,1,10,044,CLIN,CLIN,046,CLIN,CLIN,048,CLIN,CLIN,051,CLIN,CLIN*65,1701228154629
NMEA,$PGLOR,2,SVC,SBS,0,3,2,10,041,CLIN,CLIN,042,CLIN,CLIN,049,CLIN,CLIN,050,CLIN,CLIN*67,1701228154629
NMEA,$PGLOR,2,SVC,SBS,0,3,3,10,036,CLIN,CLIN,040,CLIN,CLIN*6C,1701228154630
NMEA,$PGLOR,2,SVC,GLO,0,3,1,12,056,SKUS,SKUS,058,SKUS,SKUS,059,SKUS,SKUS,063,SKUS,SKUS*6C,1701228154630
NMEA,$PGLOR,2,SVC,GLO,0,3,2,12,057,SKUS,SKUS,062,SKUS,SKUS,064,CLIN,CLIN,065,CLIN,CLIN*6F,1701228154630
NMEA,$PGLOR,2,SVC,GLO,0,3,3,12,052,CLIN,CLIN,055,CLIN,CLIN,060,CLIN,CLIN,061,CLIN,CLIN*6F,1701228154630
NMEA,$PGLOR,2,SVC,QZS,0,1,1,03,066,CLIN,CLIN,067,CLIN,CLIN,069,CLIN,CLIN*67,1701228154630
NMEA,$PGLOR,2,SVC,GAL,0,3,1,09,156,SKUS,SKUS,165,SKUS,SKUS,168,SKUS,SKUS,172,SKUS,SKUS*64,1701228154630
NMEA,$PGLOR,2,SVC,GAL,0,3,2,09,140,SKUS,SKUS,145,SKPR,SKUS,153,SKUS,SKUS,174,SKUS,SKUS*68,1701228154630
NMEA,$PGLOR,2,SVC,GAL,0,3,3,09,157,CLIN,CLIN*72,1701228154630
NMEA,$PGLOR,2,SVC,GAL,2,2,1,08,156,SKUS,SKUS,165,SKUS,SKUS,168,SKUS,SKUS,172,SKUS,SKUS*66,1701228154630
NMEA,$PGLOR,2,SVC,GAL,2,2,2,08,140,SKUS,SKUS,145,SKUS,SKUS,153,CLIN,CLIN,174,SKUS,SKUS*6E,1701228154630
NMEA,$PGLOR,2,SIO,TxERR,0,RxERR,0,TxCNT,952,RxCNT,9348,MLFRMPKT,0,DTMS,1008,DTIN,57,74,DTOUT,17,932,HATMD,56*18,1701228154630
NMEA,$PGLOR,2,HLA,032234.00,L,,Al,,A,,H,,,M,0,Ac,0,Gr,0,S,,,Sx,,,T,0,Tr,,Mn,,Ap,-20,Ta,0,,,Aa,1,Ga,1,*31,1701228154630
NMEA,$PGLOR,3,CTX,032234.00,E,1,1,,,V,2,0,S,,,*7E,1701228154630
NMEA,$PGLOR,1,LSQ,032234.00,3725.682016,N,12209.390107,W,0.0,1.1,-89.9,0.0,1.8,,,,,,,10,-7.8,26.1*3E,1701228154630
NMEA,$PGLOR,6,PWR,mA,20.5,RFTm,691,OscTm,1001,MeasTm,1001,UTC,032234.00,GNSSmA,19.2,CPUTm,201,COPTm,75,COPMargTm,156,Sr*00,1701228154630
NMEA,$PGLOR,0,PPS,291123,032234.000,140170,054434.300,000.100,1,0,1,*1A,1701228154631
NMEA,$PGLOR,2,AGC,G,43.1,R,61.3,B,18.5,E5A,29.5,E5B,,L2,*1B,1701228154631
NMEA,$PSSGR,GSA,A,3,06,11,12,13,15,17,19,22,24,,,,1.7,0.9,1.4,1,1*4D,1701228154631
NMEA,$PSSGR,GSA,A,3,06,11,24,,,,,,,,,,1.7,0.9,1.4,1,8*4F,1701228154631
NMEA,$PSSGR,GSA,A,3,,,,,,,,,,,,,1.7,0.9,1.4,1,9*4E,1701228154631
NMEA,$PSSGR,GSA,A,3,75,76,77,85,86,87,,,,,,,1.7,0.9,1.4,2,1*4A,1701228154631
NMEA,$PSSGR,GSA,A,3,,,,,,,,,,,,,1.7,0.9,1.4,5,1*42,1701228154631
NMEA,$PSSGR,GSA,A,3,,,,,,,,,,,,,1.7,0.9,1.4,5,8*4B,1701228154631
NMEA,$PSSGR,GSA,A,3,,,,,,,,,,,,,1.7,0.9,1.4,5,9*4A,1701228154631
NMEA,$PSSGR,GSA,A,3,,,,,,,,,,,,,1.7,0.9,1.4,4,1*43,1701228154631
NMEA,$PSSGR,GSA,A,3,,,,,,,,,,,,,1.7,0.9,1.4,4,5*47,1701228154632
NMEA,$PSSGR,GSA,A,3,,,,,,,,,,,,,1.7,0.9,1.4,4,3*41,1701228154632
NMEA,$PSSGR,GSA,A,3,107,115,118,127,130,134,136,,,,,,1.7,0.9,1.4,3,7*7D,1701228154632
NMEA,$PSSGR,GSA,A,3,102,107,115,118,127,130,134,,,,,,1.7,0.9,1.4,3,1*7C,1701228154632
NMEA,$PSSGR,GSA,A,3,,,,,,,,,,,,,1.7,0.9,1.4,6,1*41,1701228154632
NMEA,$GPGSV,7,1,28,19,65,035,34,24,56,288,44,06,51,140,36,22,39,082,28*70,1701228154632
NMEA,$GPGSV,7,2,28,17,37,046,37,11,27,174,32,12,24,296,41,14,20,095,17*74,1701228154632
NMEA,$GPGSV,7,3,28,13,12,205,33,15,10,239,27,30,00,148,,03,00,051,*70,1701228154632
NMEA,$GPGSV,7,4,28,44,46,172,,46,46,191,,48,45,198,,51,44,156,*74,1701228154632
NMEA,$GPGSV,7,5,28,50,,,,49,,,,41,,,,42,,,*7A,1701228154632
NMEA,$GPGSV,7,6,28,36,,,,40,,,,31,,,,32,,,*70,1701228154632
NMEA,$GPGSV,7,7,28,24,,,38,06,,,35,11,,,33,14,,,,8*6F,1701228154632
NMEA,$GLGSV,3,1,12,86,78,133,35,76,63,358,44,75,40,109,38,85,39,034,41*68,1701228154633
NMEA,$GLGSV,3,2,12,87,28,199,42,77,22,321,38,67,05,302,,68,01,346,*65,1701228154633
NMEA,$GLGSV,3,3,12,74,,,,66,,,,84,,,,65,,,*6A,1701228154633
NMEA,$QZGSV,1,1,03,02,,,,01,,,,04,,,*61,1701228154633
NMEA,$GAGSV,5,1,17,118,85,024,34,130,69,035,33,134,55,096,32,127,37,304,46*68,1701228154633
NMEA,$GAGSV,5,2,17,115,35,171,39,102,26,093,22,136,21,041,38,107,18,236,38*60,1701228154633
NMEA,$GAGSV,5,3,17,119,02,329,*6B,1701228154633
NMEA,$GAGSV,5,4,17,118,,,35,130,,,33,134,,,33,127,,,35,1*7A,1701228154633
NMEA,$GAGSV,5,5,17,115,,,40,102,,,24,136,,,,107,,,41,1*70,1701228154633
NMEA,$GPGSA,A,3,06,11,12,13,15,17,19,22,24,,,,1.7,0.9,1.4*33,1701228154633
NMEA,$GPGSA,A,3,06,11,24,,,,,,,,,,1.7,0.9,1.4,8*2C,1701228154633
NMEA,$GPGSA,A,3,,,,,,,,,,,,,1.7,0.9,1.4,9*2D,1701228154634
NMEA,$QZGSA,A,3,,,,,,,,,,,,,1.7,0.9,1.4*24,1701228154634
NMEA,$QZGSA,A,3,,,,,,,,,,,,,1.7,0.9,1.4,8*30,1701228154634
NMEA,$QZGSA,A,3,,,,,,,,,,,,,1.7,0.9,1.4,9*31,1701228154634
NMEA,$BDGSA,A,3,,,,,,,,,,,,,1.7,0.9,1.4*29,1701228154634
NMEA,$BDGSA,A,3,,,,,,,,,,,,,1.7,0.9,1.4,5*30,1701228154634
NMEA,$BDGSA,A,3,,,,,,,,,,,,,1.7,0.9,1.4,3*36,1701228154634
NMEA,$GAGSA,A,3,107,115,118,127,130,134,136,,,,,,1.7,0.9,1.4*16,1701228154634
NMEA,$GAGSA,A,3,102,107,115,118,127,130,134,,,,,,1.7,0.9,1.4,1*0C,1701228154634
NMEA,$NCGSA,A,3,,,,,,,,,,,,,1.7,0.9,1.4,1*3F,1701228154634
NMEA,$GNGSA,A,3,06,11,12,13,15,17,19,22,24,,,,1.7,0.9,1.4*2D,1701228154634
NMEA,$GNGSA,A,3,75,76,77,85,86,87,,,,,,,1.7,0.9,1.4*29,1701228154634
NMEA,$PGLOR,1,FIX,1.0,1.0*20,1701228154634
NMEA,$GPRMC,032234.00,A,3725.651176,N,12209.425297,W,000.1,053.7,291123,,,A*44,1701228154635
NMEA,$PGLOR,SPL,20231128192234.6,POS,20231129032234.000,37.427520,-122.157088,3,3,0,-19,3,1.100000*6C,1701228154635
NMEA,$GPGGA,032235.00,3725.651139,N,12209.425271,W,1,31,0.4,9.2,M,-28.4,M,,*50,1701228155629
NMEA,$PGLOR,11,STA,032235.00,0.130,0.000,-1048,1,3,3,P,S,L,0,C,2,S,00100002,80,5,R,000833F4,TPEF,36,158945,LC,,,DR,3,0,*00,1701228155629
NMEA,$PGLOR,1,UNC,032235.00,0.007,3.6,3.0,0.12,180.00,4.1,3.4,137.5*21,1701228155629
NMEA,$PGLOR,2,SAT,4,1,E18,31,7AF,R22,31,2F,E30,29,7AF,G19,26,2F,R12,40,2F,G24,40,7AF*7B,1701228155630
NMEA,$PGLOR,2,SAT,4,2,E34,27,7AF,G06,32,7AF,R11,32,2F,R21,35,2F,G22,15,23,G17,31,2F*42,1701228155630
NMEA,$PGLOR,2,SAT,4,3,E27,41,7AF,E15,35,7AF,R23,38,2F,G11,27,7AB,E02,13,7A3,G12,31,2F*5F,1701228155630
NMEA,$PGLOR,2,SAT,4,4,R13,34,2F,E36,,2002F,G14,12,20020,E07,34,7AF,G13,30,2B,G15,20,2F*10,1701228155630
NMEA,$PGLOR,2,SVC,GPS,0,3,1,10,006,SKUS,SKUS,019,SKUS,SKUS,022,SKUS,SKUS,024,SKUS,SKUS*61,1701228155630
NMEA,$PGLOR,2,SVC,GPS,0,3,2,10,011,SKUS,SKUS,012,SKUS,SKUS,014,SKUS,SKUS,017,CLIN,CLIN*6A,1701228155630
NMEA,$PGLOR,2,SVC,GPS,0,3,3,10,013,SKPR,SKUS,015,SKUS,SKUS*69,1701228155630
NMEA,$PGLOR,2,SVC,GPS,2,1,1,04,006,SKUS,SKUS,011,SKUS,SKUS,014,SKUS,SKUS,024,CLIN,CLIN*69,1701228155631
NMEA,$PGLOR,2,SVC,GLO,0,2,1,06,056,SKUS,SKUS,058,SKUS,SKUS,059,SKUS,SKUS,063,SKUS,SKUS*68,1701228155631
NMEA,$PGLOR,2,SVC,GLO,0,2,2,06,057,SKUS,SKUS,062,SKUS,SKUS*6A,1701228155631
NMEA,$PGLOR,2,SVC,GAL,0,2,1,08,156,SKUS,SKUS,165,SKUS,SKUS,168,SKUS,SKUS,172,SKUS,SKUS*64,1701228155631
NMEA,$PGLOR,2,SVC,GAL,0,2,2,08,140,SKUS,SKUS,145,POGH,POGH,153,SKUS,SKUS,174,SKUS,SKUS*6C,1701228155632
NMEA,$PGLOR,2,SVC,GAL,2,2,1,08,156,SKUS,SKUS,165,SKUS,SKUS,168,SKUS,SKUS,172,SKUS,SKUS*66,1701228155632
NMEA,$PGLOR,2,SVC,GAL,2,2,2,08,140,SKUS,SKUS,145,SKUS,SKUS,153,CLIN,CLIN,174,SKUS,SKUS*6E,1701228155632
NMEA,$PGLOR,2,SIO,TxERR,0,RxERR,0,TxCNT,907,RxCNT,8669,MLFRMPKT,0,DTMS,991,DTIN,29,64,DTOUT,17,925,HATMD,47*29,1701228155632
NMEA,$PGLOR,2,HLA,032235.00,L,,Al,,A,,H,,,M,0,Ac,0,Gr,0,S,,,Sx,,,T,0,Tr,,Mn,,Ap,-20,Ta,0,,,Aa,1,Ga,1,*30,1701228155632
NMEA,$PGLOR,3,CTX,032235.00,E,1,1,,,V,2,0,S,,,*7F,1701228155632
NMEA,$PGLOR,1,LSQ,032235.00,3725.682780,N,12209.389513,W,0.0,1.1,-91.8,0.0,1.8,,,,,,,10,-7.9,26.0*36,1701228155632
NMEA,$PGLOR,6,PWR,mA,20.5,RFTm,690,OscTm,999,MeasTm,999,UTC,032235.00,GNSSmA,19.2,CPUTm,200,COPTm,78,COPMargTm,156,Srch*00,1701228155633
NMEA,$PGLOR,0,PPS,291123,032235.000,140170,054435.300,000.100,1,0,1,*1A,1701228155633
NMEA,$PGLOR,2,AGC,G,41.8,R,62.5,B,18.5,E5A,30.1,E5B,,L2,*19,1701228155633
NMEA,$PSSGR,GSA,A,3,06,11,12,13,15,17,19,24,,,,,1.8,0.9,1.5,1,1*43,1701228155633
NMEA,$PSSGR,GSA,A,3,06,11,24,,,,,,,,,,1.8,0.9,1.5,1,8*41,1701228155633
