     3.03           OBSERVATION DATA    M                   RINEX VERSION / TYPE
GnssLogger          Google 14           20231129 032243 UTC PGM / RUN BY / DATE
Google GnssLogger                                           MARKER NAME
Unknown                                                     MARKER NUMBER
Unknown             Unknown                                 OBSERVER / AGENCY
Unknown             GnssLogger          v3.0.6.4            REC # / TYPE / VERS
Unknown             Unknown                                 ANT # / TYPE
        0.0000        0.0000        0.0000                  ANTENNA: DELTA H/E/N
G    8 C1C L1C D1C S1C C5Q L5Q D5Q S5Q                      SYS / # / OBS TYPES
R    4 C1C L1C D1C S1C                                      SYS / # / OBS TYPES
E    8 C1C L1C D1C S1C C5Q L5Q D5Q S5Q                      SYS / # / OBS TYPES
  2023    11    29    03    22   43.0000000     GPS         TIME OF FIRST OBS
 6 R11  0 R12 -1 R13 -2 R21  4 R22 -3 R23  3                GLONASS SLOT / FRQ #
G L1C                                                       SYS / PHASE SHIFT
G L5Q  0.00000                                              SYS / PHASE SHIFT
R L1C                                                       SYS / PHASE SHIFT
E L1C  0.00000                                              SYS / PHASE SHIFT
E L5Q  0.00000                                              SYS / PHASE SHIFT
 C1C    0.000 C1P    0.000 C2C    0.000 C2P    0.000        GLONASS COD/PHS/BIS
                                                            END OF HEADER
> 2023 11 29 03 22 43.0000315  0 23                      
G06  21137098.39125   -544824.94525      3655.54925        31.41025  21136949.09525   -409610.60125      2730.25325        35.16425
G11  23186070.11825   -753389.46025      5105.32125        32.36825  23185887.54424   -566429.36024      3813.19224        24.98624
G12  23275203.81227   -655510.52727      4380.53427        42.71727                                                                
G13  24513220.45125    223668.52525     -1623.46325        31.60725                                                                
G15  24800830.84225    152005.02825     -1051.65525        29.75925                                                                
G17  22370615.74525    138336.83825      -959.40525        34.78125                                                                
G19  20438232.40625    -56074.70125       325.54925        33.17625                                                                
G22  22442747.60925      1276.58725       -38.42425        29.81025                                                                
G24  21042240.46027   -367555.19427      2402.98327        44.35427  21042071.67726   -280398.81026      1794.58026        36.05426
R22  19218498.01125   -347438.52925      2252.41125        34.76025
R13  22456517.97626   -768475.74726      5160.50226        38.19626
R12  19672153.25227   -475725.12927      3146.37727        42.63327
R11  20980241.28125     67823.98625      -515.60825        32.53025
R23  21873906.11024   -852441.24224      5685.79624        29.41424
R21  21046551.17626    214627.44126     -1496.25826        40.90826
E02  26201508.27323     10079.23723       -93.01723        20.96023                                                                
E07  27000795.43826    110203.05926      -781.87726        37.66726  27000630.25325     82886.30525      -583.69825        30.86725
E15  25490088.17925   -238534.68225      4489.66025        34.45325  25489923.59326   -178067.49226      3353.31726        38.18226
E18  20457684.44025   -688899.78025      4562.97725        30.41125  20457537.24225   -531010.46125      3407.84125        33.96125
E27  25397927.78027   -180638.68427      3402.29427        45.97727  25397760.49625   -134885.64625      2540.63925        32.55025
E30  23778525.36924   -240707.27624      1592.82424        28.77724  23778359.58425   -186764.25425      1189.15725        29.91825
E34  24173841.59824   -326870.73724      2170.27224        27.60724  24173663.82125   -247493.32625      1620.94925        31.31525
E36  26732126.23426     53652.28926      -410.60126        37.67626  26731964.04624     40403.11924      -306.22724        29.37424
> 2023 11 29 03 22 44.0000326  0 23                      
G06  21136735.04325   -548480.35325      3656.06625        32.05625  21136582.44825   -412340.49825      2729.61725        35.43025
G11  23185430.96025   -758494.87625      5105.53425        32.38125  23185243.59024   -570244.28824      3812.12824        23.50924
G12  23274695.66327   -659888.97327      4377.53327        41.97327                                                                
G13  24513861.70725    225293.15525     -1624.52425        30.13825                                                                
G15  24801360.27624    153056.46424     -1049.72324        26.80624                                                                
G17  22371128.99025    139297.10825      -960.20925        35.21225                                                                
G19  20438500.12125    -56400.83825       326.89825        32.94425                                                                
G22  22443084.87624      1316.01324       -39.55924        28.33724                                                                
G24  21042113.94827   -369956.50527      2400.61027        43.88527  21041944.56525   -282192.29425      1793.15825        35.21025
R22  19218408.07325   -349690.21725      2251.67525        34.18225
R13  22455877.61926   -773635.45426      5159.56526        37.99026
R12  19671898.42827   -478871.60827      3145.69027        42.84327
R11  20980670.28425     68339.17625      -516.23325        33.70625
R23  21873162.32525   -858127.35325      5685.41125        29.54225
R21  21047161.25326    216124.43426     -1497.40026        41.09026
E02  26201857.53123     10171.53023       -92.71023        20.12223                                                                
E07  27001274.80626    110984.94826      -781.93226        36.24426  27001109.02124     83469.92424      -583.70424        29.25524
E15  25489561.14426   -243024.34826      4489.17026        35.62726  25489399.25626   -181420.32826      3352.84026        38.27126
E18  20457153.80725   -693464.76925      4562.50625        30.06925  20456997.91525   -534419.25725      3407.17025        32.78625
E27  25397609.70127   -184040.33227      3401.76027        45.86227  25397443.01625   -137425.74525      2540.12425        31.69125
E30  23778552.35125   -242300.08625      1592.52425        29.83425  23778386.56624   -187953.14024      1189.28324        27.82824
E34  24173756.15724   -329040.53824      2169.09324        28.61624  24173580.47825   -249114.10625      1620.51825        30.61825
E36  26732533.95226     54063.38426      -411.28226        37.06226  26732371.76424     40707.42124      -307.21224        26.75824
> 2023 11 29 03 22 45.0000336  0 23                      
G06  21136347.71125   -552134.20325      3654.16225        34.50025  21136186.72226   -415069.35826      2728.75026        37.34526
G11  23184756.72725   -763599.75925      5105.35125        32.41725  23184569.35724   -574060.87124      3813.11724        23.75224
G12  23274164.73126   -664267.40426      4377.82026        41.15726                                                                
G13  24514478.38024    226918.10124     -1625.27824        27.68424                                                                
G15  24801863.62724    154109.84824     -1048.63924        24.72924                                                                
G17  22371608.05826    140259.00726      -962.56826        37.66126                                                                
G19  20438737.25725    -56725.95725       326.42825        33.75725                                                                
G22  22443392.76224      1353.50624       -41.23224        28.88624                                                                
G24  21041958.65527   -372356.48227      2399.49727        43.82827  21041786.27426   -283985.04726      1792.24526        37.09426
R22  19218280.06225   -351940.49325      2250.67725        33.37025
R13  22455201.58726   -778793.67226      5157.32326        38.14026
R12  19671606.43027   -482017.33527      3144.66227        44.20727
R11  20981070.50726     68854.83226      -516.28626        35.53326
R23  21872409.84624   -863813.95624      5686.86224        27.29324
R21  21047737.45527    217622.91027     -1499.10127        42.07827
E02  26202176.21122     10264.10822       -93.28622        17.18622                                                                
E07  27001721.79725    111767.90025      -782.59925        34.59325  27001557.21125     84054.47225      -584.57725        31.08025
E15  25489006.82826   -247512.43826      4488.10726        37.66126  25488844.34026   -184772.32626      3352.14226        39.56626
E18  20456585.10125   -698026.50325      4561.39625        29.78025  20456429.50925   -537825.07825      3405.95325        32.99225
E27  25397262.24127   -187440.69227      3401.18127        46.19427  25397095.25725   -139964.83925      2539.66225        31.96925
E30  23778547.25425   -243891.58725      1591.83725        30.41825  23778382.66825   -189141.95325      1188.71225        29.51725
E34  24173641.93625   -331208.86425      2167.96925        31.32825  24173466.55725   -250733.63425      1619.27925        31.92025
E36  26732913.78926     54475.99826      -412.45526        38.03126  26732750.70224     41011.22624      -309.19724        24.94224
> 2023 11 29 03 22 46.0000347  0 23                      
G06  21135988.56025   -555787.26825      3652.50225        34.63125  21135820.97626   -417798.27926      2728.90726        37.36126
G11  23184117.56925   -768704.40125      5105.51825        32.62325  23183928.10124   -577877.64624      3813.25024        23.87524
G12  23273660.48026   -668646.18226      4378.77526        41.49826                                                                
G13  24515122.63424    228543.88024     -1626.38824        27.17724                                                                
G15  24802372.67524    155158.04424     -1051.06224        23.78524                                                                
G17  22372116.20626    141220.36326      -961.12526        37.10226                                                                
G19  20439007.07025    -57050.06825       323.79225        33.84225                                                                
G22  22443731.52824      1392.65924       -41.37324        26.84124                                                                
G24  21041831.84327   -374755.67427      2398.88927        43.66127  21041659.46226   -285776.68926      1792.58126        37.99126
R22  19218176.93325   -354189.80025      2248.61425        34.39225
R13  22454565.42826   -783952.33326      5158.58926        38.30626
R12  19671348.30927   -485162.67527      3145.16827        43.90427
R11  20981488.71825     69370.87525      -516.59325        35.36825
R23  21871668.75924   -869500.20724      5686.81024        26.56924
R21  21048349.93127    219121.14327     -1498.04427        41.60427
E02  26202525.46923     10356.74423       -93.06923        19.49123                                                                
E07  27002200.56625    112551.31925      -783.38925        34.20825  27002036.57925     84639.53925      -584.31325        31.60325
E15  25488484.58926   -252001.03526      4488.95426        37.64226  25488320.00326   -188122.11526      3352.20026        39.04326
E18  20456048.17325   -702587.14025      4560.43025        29.69625  20455891.38125   -541230.34525      3405.83125        32.98425
E27  25396945.06127   -190841.51927      3401.34527        46.16327  25396777.17725   -142502.72225      2539.81225        32.40925
E30  23778574.23625   -245483.03325      1591.28125        30.82225  23778408.75024   -190330.08324      1188.81524        29.31924
E34  24173559.79325   -333376.98225      2167.31625        31.80525  24173383.51525   -252352.28725      1619.44625        30.86825
E36  26733319.10826     54888.44026      -412.56226        37.68226  26733159.31924     41312.65824      -307.68424        24.08624
> 2023 11 29 03 22 47.0000357  0 23                      
G06  21135594.03325   -559439.24325      3650.46225        34.39825  21135424.65026   -420526.30726      2728.93726        37.39726
G11  23183437.04125   -773809.13425      5105.56625        31.41725  23183256.26623   -581691.30923      3811.24723        23.33423
G12  23273124.15126   -673024.60626      4378.29726        40.39226                                                                
G13  24515735.11024    230170.09624     -1628.95824        28.43324                                                                
G15  24802870.63023    156206.86123     -1050.85723        22.41823                                                                
G17  22372599.47226    142181.82626      -961.62626        37.07326                                                                
G19  20439245.10525    -57372.87825       321.86725        33.91225                                                                
G22  22444043.61224      1433.29624       -40.06724        28.89524                                                                
G24  21041674.75227   -377154.04427      2397.02627        44.02227  21041502.37126   -287568.30626      1792.10526        38.24826
R22  19218049.82125   -356437.74425      2247.05125        33.83625
R13  22453904.08626   -789112.03126      5160.71426        38.00026
R12  19671059.00927   -488307.77427      3145.02227        43.71027
R11  20981889.24026     69886.84226      -515.01926        36.16926
R23  21870892.89624   -875186.76724      5685.56724        25.61424
R21  21048933.62627    220620.00127     -1498.80827        41.60827
E02  26202845.94723     10449.94923       -93.93523        22.18723                                                                
E07  27002648.15625    113334.57325      -784.17125        34.72825  27002485.06925     85224.32525      -584.45025        31.88725
E15  25487933.87126   -256489.22826      4487.92626        38.49326  25487765.08726   -191473.21626      3351.84426        39.50326
E18  20455480.96524   -707147.49024      4559.37824        29.05824  20455322.37525   -544636.00525      3405.60025        33.23425
E27  25396596.70227   -194242.38327      3401.23427        46.25027  25396429.11825   -145042.31225      2539.66125        32.76925
E30  23778570.03925   -247074.52425      1590.69425        30.32225  23778405.15325   -191518.86525      1188.95825        29.81425
E34  24173446.47125   -335543.89225      2166.72025        31.44825  24173270.49325   -253972.08725      1619.00325        31.16925
E36  26733705.54126     55300.92226      -412.79426        37.70026  26733538.25724     41610.51124      -307.50424        24.30924
> 2023 11 29 03 22 48.0000368  0 23                      
G06  21135227.68625   -563090.24425      3650.20425        34.10525  21135059.80326   -423253.82226      2727.31726        37.75426
G11  23182794.28525   -778913.12425      5104.00925        32.56425  23182616.50924   -585503.07524      3811.24724        24.99924
G12  23272621.99926   -677402.68926      4377.31026        39.04826                                                                
G13  24516375.46624    231796.29324     -1627.21124        28.97224                                                                
G15  24803399.76423    157258.43023     -1050.80323        20.43623                                                                
G17  22373115.41426    143143.99526      -962.06026        36.68526                                                                
G19  20439511.32125    -57695.33025       320.06625        32.48925                                                                
G22  22444372.18424      1476.66324       -42.63124        27.53024                                                                
G24  21041547.04027   -379551.97627      2397.42427        44.51927  21041375.25926   -289359.50026      1790.62426        38.14626
R22  19217961.68225   -358684.59825      2245.84625        33.03525
R13  22453273.02326   -794270.99226      5158.98726        37.57526
R12  19670801.48727   -491452.75927      3145.28127        43.57827
R11  20982329.63526     70403.20426      -515.31326        36.09826
R23  21870135.62024   -880870.86024      5682.80424        25.81824
R21  21049546.10226    222119.45726     -1498.88326        41.47426
E02  26203194.30623     10544.16723       -94.25623        22.72023                                                                
E07  27003128.42325    114118.82925      -784.66225        34.66625  27002963.83725     85809.77125      -584.95825        31.70225
E15  25487405.93626   -260977.04526      4487.28426        38.38126  25487240.15126   -194824.05026      3351.40726        38.89626
E18  20454943.73724   -711706.38624      4558.59824        29.31724  20454784.24825   -548040.37625      3405.02525        32.48425
E27  25396278.02327   -197643.08727      3400.81127        45.87827  25396111.93825   -147581.23325      2539.54825        34.15725
E30  23778597.02025   -248664.92325      1590.19825        30.70925  23778431.83424   -192707.19724      1188.16524        29.28824
E34  24173362.52925   -337710.20225      2166.12025        32.40125  24173187.75025   -255589.93225      1618.39025        30.90425
E36  26734108.76226     55714.02026      -413.60326        37.11826  26733947.47323     41908.50923      -308.87823        21.72523
> 2023 11 29 03 22 49.0000378  0 23                      
G06  21134837.35725   -566740.16125      3648.68025        34.70425  21134664.37625   -425976.92725      2722.05525        33.82225
G11  23182129.34625   -784015.92925      5103.18225        31.09525  23181943.17525   -589313.70025      3810.56825        30.49625
G12  23272087.76926   -681779.60026      4375.68326        37.29626                                                                
G13  24516981.34724    233421.96624     -1625.34524        27.69124                                                                
G15  24803900.71724    158309.95224     -1051.06124        28.72824                                                                
G17  22373595.98226    144106.48326      -962.82326        35.88926                                                                
G19  20439749.05625    -58016.94325       321.58525        33.05225                                                                
G22  22444674.07524      1524.17024       -44.38324        27.76024                                                                
G24  21041388.75027   -381948.63927      2396.96127        43.82027  21041218.76726   -291149.80226      1790.18826        38.66326
R22  19217838.46725   -360929.65525      2243.95825        35.25225
R13  22452604.78526   -799429.82526      5159.56026        38.02626
R12  19670507.99127   -494596.38527      3144.23827        43.75127
R11  20982717.26726     70920.98226      -516.85226        36.29326
R23  21869409.52326   -886553.66026      5682.80426        36.78026
R21  21050124.10226    223620.87226     -1502.52326        40.98626
E02  26203514.48423     10639.52323       -94.35123        23.02423                                                                
E07  27003576.91325    114903.52125      -785.00925        32.00625  27003411.72724     86393.31724      -585.70924        28.82424
E15  25486853.41926   -265463.70126      4485.84526        38.60426  25486684.93526   -198174.61026      3350.40026        40.25026
E18  20454377.72925   -716262.97625      4557.35225        31.18025  20454215.54125   -551444.84425      3404.40225        35.40525
E27  25395936.85927   -201043.05227      3400.02027        45.57227  25395764.17825   -150120.26925      2539.11325        35.49925
E30  23778592.22325   -250254.51625      1589.62525        32.87825  23778429.43625   -193895.28525      1187.88125        31.74525
E34  24173251.00725   -339875.45425      2165.25525        32.05125  24173075.02825   -257207.60025      1617.69325        32.41725
E36  26734487.99926     56128.59726      -415.37526        36.64926                                                                
> 2023 11 29 03 22 50.0000389  0 23                      
G06  21134473.70826   -570388.29126      3647.52426        36.26226  21134299.52925   -428696.27225      2722.71725        31.72725
G11  23181486.59125   -789117.89825      5101.55325        29.78725  23181303.41825   -593123.38725      3810.01325        32.12825
G12  23271583.81826   -686155.95026      4376.54026        36.00226                                                                
G13  24517607.91325    235047.80425     -1625.48625        31.01625                                                                
G15  24804434.04824    159362.33824     -1051.78724        24.61324                                                                
G17  22374113.12425    145070.42525      -964.50025        34.99325                                                                
G19  20440012.87425    -58338.45325       321.73825        30.87625                                                                
G22  22445007.74424      1569.57924       -44.17624        27.44024                                                                
G24  21041265.23527   -384344.25827      2395.72127        42.36927  21041091.35626   -292937.95126      1787.89926        35.75826
R22  19217744.63225   -363173.14825      2242.52125        34.81125
R13  22451967.42626   -804587.17026      5156.72326        37.17726
R12  19670246.87127   -497738.06427      3140.80327        43.54627
R11  20983154.06526     71440.91026      -521.21826        37.97026
R23  21868669.63527   -892235.68227      5682.04527        41.99727
R21  21050728.78426    225124.16326     -1504.55526        39.04526
E02  26203862.24423     10735.55123       -94.99223        20.60323                                                                
E07  27004056.88025    115689.05325      -785.44725        34.92425  27003890.49626     86979.91726      -585.80826        38.91926
E15  25486332.07926   -269949.32326      4485.15426        38.91226  25486160.89826   -201523.85326      3349.40126        40.47926
E18  20453843.19925   -720819.85525      4556.36125        32.07725  20453678.01325   -554847.42925      3403.24725        34.61625
E27  25395613.68227   -204441.44127      3399.14927        42.70227  25395447.59725   -152657.86525      2537.32825        33.13625
E30  23778620.70325   -251843.59225      1589.01625        32.63625  23778456.71725   -195081.65225      1187.05425        33.54725
E34  24173167.36425   -342037.34325      2164.26625        29.89025  24172993.48525   -258823.35025      1615.65225        32.92925
E36  26734899.31426     56544.48926      -416.27826        36.94026                                                                
> 2023 11 29 03 22 51.0000399  0 23                      
G06  21134080.98026   -574035.61526      3649.27026        35.88426  21133905.00224   -431414.75524      2723.77724        28.82524
G11  23180810.85925   -794218.56825      5098.56525        29.97825  23180631.58325   -596933.68325      3810.22225        32.29825
G12  23271053.78526   -690532.03026      4376.60226        36.97226                                                                
G13  24518210.49625    236674.00425     -1625.92525        31.58725                                                                
G15  24804929.90423    160415.09123     -1056.53823        22.72123                                                                
G17  22374593.39125    146034.55525      -964.87325        34.94025                                                                
G19  20440251.80825    -58658.84325       321.24525        30.56925                                                                
G22  22445301.54124      1613.08424       -44.95724        25.52124                                                                
G24  21041105.74627   -386738.46227      2393.38627        42.84927  21040935.76326   -294730.55426      1788.85226        36.47326
R22  19217618.71925   -365415.71025      2241.67325        34.33225
R13  22451300.08825   -809742.90325      5153.22025        34.99125
R12  19669959.97027   -500879.40527      3140.21527        43.78027
R11  20983538.09926     71961.46126      -521.32426        37.70926
R23  21867897.96927   -897917.36827      5681.15327        41.71427
R21  21051304.38526    226627.02426     -1503.15326        38.75226
E02  26204177.92523     10833.02123       -95.34823        19.28423  26203997.15024      7884.11224       -71.60524        23.98124
E07  27004497.27626    116474.31026      -785.64926        37.24226  27004339.28526     87565.92126      -585.75026        40.56426
E15  25485772.06726   -274434.79726      4484.76726        39.33226  25485606.28226   -204873.93826      3350.21026        40.41226
E18  20453279.28925   -725375.56825      4555.39225        32.76925  20453110.80625   -558250.24325      3402.82025        34.26025
E27  25395265.62327   -207840.75627      3399.70227        44.39527  25395099.83825   -155196.52325      2539.06025        33.95425
E30  23778616.80625   -253432.66425      1588.40925        31.81825  23778453.71925   -196268.43525      1186.51725        32.54425
E34  24173052.54424   -344195.02524      2163.31824        28.57124  24172880.46325   -260438.89525      1616.34525        33.41725
E36  26735277.65226     56961.22326      -416.58026        37.01326                                                                
> 2023 11 29 03 22 52.0000410  0 23                      
G06  21133711.33625   -577684.64825      3649.87325        34.96825  21133540.75424   -434134.45824      2725.29024        26.79024
G11  23180172.00125   -799318.87325      5098.00725        31.15125  23179990.02725   -600744.12925      3810.82825        32.69525
G12  23270553.43125   -694909.27225      4376.59725        35.06325                                                                
G13  24518849.35425    238300.74025     -1627.53825        32.54225                                                                
G15  24805460.83723    161470.26223     -1056.67623        20.91623                                                                
G17  22375104.83725    146998.28925      -963.92225        34.14525                                                                
G19  20440517.42425    -58981.60625       320.87025        29.73625                                                                
G22  22445645.70324      1661.31824       -46.23224        23.51124                                                                
G24  21040979.83327   -389132.03227      2392.84927        43.58427  21040809.85026   -296524.35626      1788.36526        35.64226
R22  19217523.08625   -367657.48725      2241.61725        34.48225
R13  22450659.43225   -814899.57425      5155.67425        34.23325
R12  19669696.75227   -504021.73927      3142.92627        43.52027
R11  20983951.51326     72480.73426      -517.92026        36.94826
R23  21867168.27427   -903599.48927      5682.95327        41.56427
R21  21051897.67526    228128.94526     -1500.57326        36.02726
E02  26204527.18323     10931.53723       -95.68523        18.16623  26204344.01023      7954.42623       -71.97123        23.30323
E07  27004981.44026    117259.39726      -784.97326        37.64326  27004818.05326     88151.97326      -585.69026        40.51426
E15  25485252.82726   -278920.76526      4486.04026        39.05326  25485082.24526   -208223.90926      3350.29926        40.12726
E18  20452745.65925   -729931.62025      4555.16525        34.44625  20452573.27825   -561655.77825      3402.52125        32.55125
E27  25394950.24227   -211239.65827      3399.88927        45.23727  25394782.65825   -157734.94825      2538.31125        32.72025
E30  23778642.88825   -255021.66725      1588.22525        31.76025  23778480.40125   -197455.69725      1187.13725        32.51025
E34  24172967.40325   -346350.80325      2162.96625        30.55125  24172798.32025   -262055.09425      1616.42425        33.24025
E36  26735683.27226     57376.92226      -415.49726        36.10326                                                                
> 2023 11 29 03 22 53.0000420  0 23                      
G06  21133314.71126   -581333.19926      3649.26726        36.07526  21133145.32824   -436858.20524      2724.45024        27.19424
G11  23179504.36325   -804419.59325      5099.36925        30.61825  23179318.19225   -604554.40625      3810.09125        32.09625
G12  23270021.29925   -699285.07525      4374.78025        34.35325                                                                
G13  24519456.43425    239927.01025     -1627.01025        33.20925                                                                
G15  24805968.98523    162528.91923     -1056.83023        23.26023                                                                
G17  22375586.30425    147961.68725      -963.14225        34.85225                                                                
G19  20440761.15625    -59301.43625       318.88325        29.62525                                                                
G22  22445946.69423      1710.06623       -45.24023        18.81023                                                                
G24  21040819.14427   -391525.29227      2392.65727        43.15527  21040655.15826   -298313.37826      1788.02026        37.63026
R22  19217408.26525   -369899.39425      2242.03825        35.09125
R13  22449994.19226   -820057.12826      5158.36326        37.83826
R12  19669415.54727   -507163.23927      3142.14127        43.28927
R11  20984347.23925     73001.67725      -521.75725        35.46725
R23  21866408.30127   -909280.74927      5681.10227        41.84427
R21  21052496.06026    229632.71226     -1503.94926        38.13626
E02  26204847.06222     11031.76422       -96.89422        17.09022  26204661.49023      8026.20123       -72.19623        22.44523
E07  27005429.03126    118044.34526      -785.37926        37.78826  27005266.54326     88738.91126      -586.33826        40.05626
E15  25484690.41626   -283406.22226      4484.87426        38.34626  25484528.82826   -211573.02626      3349.98526        40.31226
E18  20452177.85225   -734486.86925      4555.05325        34.57025  20452005.77125   -565060.88625      3402.10925        33.48625
E27  25394601.28327   -214638.84127      3399.40927        44.89627  25394435.49825   -160271.06625      2537.68525        30.82125
E30  23778641.38925   -256610.06425      1588.18225        32.13525  23778477.40325   -198641.99425      1186.81025        32.30125
E34  24172857.37925   -348503.43425      2162.52325        30.48025  24172686.19825   -263670.83125      1614.98725        31.61725
E36  26736066.10726     57793.07026      -416.30626        38.47926                                                                
> 2023 11 29 03 22 54.0000431  0 22                      
G06  21132945.06725   -584981.55525      3650.42725        35.10725  21132781.08024   -439585.19924      2723.51624        26.73624
G11  23178861.00824   -809520.54624      5100.52324        28.86024  23178677.53525   -608363.33825      3809.46325        31.81725
G12  23269514.05125   -703661.16325      4376.15525        33.77025                                                                
G13  24520093.79225    241553.77225     -1626.73225        33.63825                                                                
G15  24806508.01224    163588.47424     -1057.25024        26.68324                                                                
G17  22376098.05025    148925.13025      -963.03925        34.30925                                                                
G19  20441030.06925    -59619.27925       316.31125        31.18125                                                                
G24  21040694.13127   -393918.04727      2392.44727        42.95727  21040528.34526   -300100.75726      1787.35026        37.48026
R22  19217321.92525   -372140.62225      2240.43525        35.32125
R13  22449348.43926   -825215.39226      5158.00126        36.23226
R12  19669157.42627   -510303.04127      3139.30327        43.09527
R11  20984775.64226     73523.82926      -523.16326        35.61926
R23  21865673.80927   -914960.97727      5679.32227        41.95627
R21  21053114.53226    231137.21226     -1504.72226        38.95226
E02  26205194.52123     11133.13023       -96.47523        20.50623  26205009.25023      8099.05323       -72.77223        21.23123
E07  27005911.09726    118830.13626      -785.94726        38.10826  27005745.61126     89325.84626      -586.07426        39.96326
E15  25484176.87126   -287890.91326      4484.04126        38.50126  25484004.79126   -214921.70026      3349.32626        40.23426
E18  20451642.42325   -739041.96525      4554.65825        33.58025  20451468.54325   -568457.86225      3401.38125        33.69325
E27  25394286.80127   -218037.61227      3399.15827        45.18727  25394117.41825   -162808.58525      2538.63425        31.46825
E30  23778669.27025   -258198.75925      1588.00625        32.42625  23778504.38425   -199827.77325      1186.27825        31.73725
E34  24172774.03725   -350656.51325      2161.90525        30.00925  24172603.75525   -265285.35225      1614.59425        31.33225
E36  26736475.62326     58210.29126      -417.47926        38.53526                                                                
> 2023 11 29 03 22 55.0000441  0 22                      
G06  21132558.63426   -588628.28026      3648.43426        35.78526  21132387.45325   -442313.46525      2722.90525        29.64725
G11  23178198.46725   -814624.25525      5102.07525        29.89525  23178005.70125   -612172.70825      3809.45925        32.26825
G12  23268983.71825   -708037.69625      4377.27425        32.94125                                                                
G13  24520700.57225    243180.33225     -1626.61025        33.90725                                                                
G15  24807017.05924    164644.32724     -1058.97324        27.00224                                                                
G17  22376581.31525    149889.86525      -964.50125        33.60825                                                                
G19  20441268.70425    -59936.39725       316.54325        31.11125                                                                
G24  21040538.53827   -396309.21827      2390.89127        43.36027  21040372.75326   -301886.92626      1785.91226        37.42726
R22  19217201.40825   -374380.38625      2239.85525        34.88025
R13  22448689.19626   -830371.01126      5153.94126        36.13326
R12  19668862.73027   -513442.15227      3138.74927        43.90927
R11  20985186.35825     74047.12425      -523.84625        34.55125
R23  21864919.83127   -920639.88627      5677.37727        41.75727
R21  21053695.53026    232642.87526     -1506.38726        37.61426
E02  26205512.90123     11235.16023       -96.38623        20.24123  26205326.43024      8172.29024       -73.18924        24.21824
E07  27006359.58626    119616.94726      -786.85426        37.88126  27006194.70026     89912.86126      -586.99726        40.54626
E15  25483618.95826   -292374.81226      4483.83326        39.41526  25483450.77426   -218270.40626      3348.66026        40.67026
E18  20451076.41425   -743595.86525      4554.01125        33.75125  20450901.33625   -571845.37725      3400.63725        32.69725
E27  25393938.14227   -221435.35627      3398.57827        45.05527  25393769.05925   -165346.27625      2537.63225        32.25825
E30  23778668.37025   -259786.68125      1587.90825        32.80225  23778502.58525   -201013.90925      1185.97625        31.56425
E34  24172661.01525   -352818.45825      2161.31525        29.62325  24172491.33225   -266899.92025      1614.54425        32.05325
E36  26736856.95926     58628.46126      -418.15426        37.78026                                                                
> 2023 11 29 03 22 56.0000452  0 23                      
G06  21132191.38825   -592273.11025      3643.76225        35.13725  21132025.00425   -445038.20225      2722.13225        29.54525
G11  23177557.21125   -819728.00425      5101.56425        30.23925  23177365.04425   -615981.22225      3808.88025        32.84325
G12  23268483.06425   -712413.77325      4376.94925        32.92225                                                                
G13  24521341.52925    244807.06025     -1627.01525        33.90025                                                                
G15  24807556.68624    165707.66424     -1057.35324        27.25424                                                                
G17  22377091.26225    150855.37625      -965.97025        32.88725                                                                
G19  20441541.21525    -60253.27925       316.85225        31.06825                                                                
G22  22446943.20523      1840.60723       -43.97923        21.41823                                                                
G24  21040413.52527   -398699.05427      2389.44727        43.34327  21040247.44026   -303672.58526      1786.10726        37.42326
R22  19217114.46825   -376618.56025      2238.50425        35.01625
R13  22448044.94226   -835525.89726      5153.14626        35.87926
R12  19668606.70727   -516580.79927      3138.65427        43.95127
R11  20985609.96525     74570.72325      -523.59525        34.71725
R23  21864182.94127   -926318.15127      5677.48527        41.66827
R21  21054291.51726    234150.26126     -1508.61226        37.41326
E07  27006839.55426    120403.64926      -786.78226        38.31126  27006674.06926     90500.21326      -587.19926        40.43326
E15  25483096.41926   -296858.36826      4483.48126        39.74926  25482926.73726   -221618.66726      3348.63226        40.73326
E18  20450540.08625   -748148.93425      4553.07325        34.76625  20450364.40725   -575245.19625      3400.35525        32.11925
E27  25393620.66227   -224833.17127      3398.52127        44.75427  25393452.17925   -167883.74825      2537.84025        32.42225
E30  23778694.45225   -261374.15425      1587.54725        32.71525  23778530.16625   -202199.72725      1186.11825        31.30625
E34  24172575.87424   -354979.30224      2160.63224        28.44424  24172410.08925   -268513.25625      1613.12425        32.49025
E36  26737261.97926     59046.86526      -418.56626        37.25426                                                                
E02                                                                  26205673.88924      8245.02324       -73.22424        25.20324
> 2023 11 29 03 22 57.0000462  0 22                      
G06  21131795.96225   -595916.57525      3640.94325        34.14025  21131633.17524   -447760.52524      2722.66424        28.86324
G11  23176888.07425   -824826.19925      5101.86025        29.51425  23176694.40825   -619789.63025      3808.64325        33.03125
G12  23267953.63125   -716793.69225      4376.09125        33.01925                                                                
G13  24521949.50825    246433.71925     -1626.85025        33.97325                                                                
G15  24808067.23224    166762.47024     -1055.26724        27.18224                                                                
G17  22377575.72725    151820.56825      -966.00425        33.39225                                                                
G19  20441781.34925    -60570.59425       317.71325        31.49825                                                                
G24  21040259.43127   -401089.36827      2391.08227        43.29727  21040092.14726   -305457.33926      1785.20026        38.19026
R22  19216989.15525   -378856.10525      2237.49025        35.26525
R13  22447386.29826   -840682.01426      5155.11826        36.24026
R12  19668318.60627   -519719.35227      3138.20827        43.80527
R11  20986011.68625     75093.72425      -522.93525        35.28625
R23  21863416.67227   -931996.57927      5677.97027        41.99627
R21  21054867.41926    235656.03326     -1506.17126        37.93226
E02  26206176.64123     11443.50523       -97.70323        19.05823  26205991.96924      8318.07224       -73.35824        25.49524
E07  27007286.84426    121190.49726      -786.54026        38.00226  27007122.55826     91087.61926      -587.02026        40.12626
E15  25482542.10326   -301341.69026      4483.54326        39.73426  25482372.72026   -224966.84426      3348.52526        40.97726
E18  20449975.57725   -752701.22525      4552.07725        34.78225  20449797.20025   -578644.90025      3399.95125        32.59625
E27  25393274.40227   -228230.88027      3398.38427        44.96227  25393105.31925   -170421.35925      2537.93225        32.28525
E30  23778691.45425   -262961.22025      1587.06925        33.24125  23778526.86825   -203385.28925      1185.70125        31.05925
E34  24172464.65125   -357139.18325      2159.87725        29.98125  24172297.96625   -270126.87825      1613.54825        32.61725
E36  26737640.61726     59465.65026      -418.42626        37.56626                                                                
> 2023 11 29 03 22 58.0000473  0 23                      
G06  21131430.51525   -599559.22925      3640.36625        31.52225  21131270.42624   -450482.05724      2721.40924        28.66524
G11  23176246.21925   -829926.41425      5100.39425        30.22225  23176053.45225   -623597.55925      3808.42325        33.27625
G12  23267449.38025   -721169.51125      4376.08925        32.74025                                                                
G13  24522587.16625    248060.18525     -1626.01525        32.02625                                                                
G15  24808593.96824    167816.94024     -1054.57524        28.84424                                                                
G17  22378091.96925    152786.44825      -966.31425        32.88825                                                                
G19  20442048.76425    -60888.11925       318.14525        30.23325                                                                
G22  22447601.24923      1923.69823       -45.16023        22.01423                                                                
G24  21040137.41627   -403478.52627      2388.65227        44.42127  21039965.33526   -307241.39726      1784.83226        36.86126
R22  19216895.62025   -381092.32525      2236.29925        35.35025
R13  22446740.54526   -845838.78226      5158.21326        35.66226
R12  19668063.18327   -522857.00127      3137.69827        43.83127
R11  20986436.79226     75617.66126      -523.26926        35.80526
R23  21862691.17427   -937674.44027      5678.18627        42.39227
R21  21055478.69526    237162.11826     -1505.15426        38.25626
E02  26206520.20423     11549.54623       -97.71123        21.45723  26206339.42924      8391.17024       -72.96424        25.53724
E07  27007769.21026    121977.72826      -787.67026        37.32626  27007601.62626     91675.81626      -587.62626        39.78226
E15  25482018.96526   -305824.68726      4482.59426        38.91826  25481848.98326   -228314.28826      3348.28026        40.64226
E18  20449438.04925   -757253.43625      4551.28225        34.37925  20449260.87125   -582043.77925      3399.13825        31.91025
E27  25392959.02027   -231628.62427      3398.01727        44.98027  25392788.43825   -172958.20525      2537.46125        32.81925
E30  23778719.33525   -264548.63125      1586.79025        33.80925  23778554.44925   -204570.13425      1185.44825        30.84025
E34  24172382.20825   -359299.06425      2159.15925        30.60925  24172217.02225   -271739.09325      1612.82725        33.24725
E36  26738038.74126     59884.57026      -419.33126        35.95126                                                                
> 2023 11 29 03 22 59.0000483  0 23                      
G06  21131046.48125   -603203.14025      3640.64825        31.18525  21130876.19925   -453202.94325      2720.81225        31.34425
G11  23175570.78624   -835024.40624      5096.30324        28.81224  23175382.81625   -627405.68525      3808.09925        33.43725
G12  23266904.95725   -725544.89525      4375.51525        29.89125                                                                
G13  24523196.04524    249683.59224     -1619.33724        27.24924                                                                
G15  24809041.55826    168872.31426     -1054.85526        37.39826                                                                
G17  22378574.93525    153752.63225      -966.54125        30.37725                                                                
G19  20442279.00524    -61206.18424       316.56824        27.48524                                                                
G22  22447917.23023      1963.36623       -45.04923        23.05623                                                                
G24  21039981.22427   -405866.59627      2388.36227        45.93927  21039811.24226   -309025.00626      1783.84326        36.94026
R22  19216768.50825   -383327.51325      2235.21825        35.44525
R13  22446081.00126   -850995.08226      5157.80026        36.10226
R12  19667779.87927   -525993.81127      3136.48327        42.37627
R11  20986830.42025     76144.73325      -525.06425        32.85725
R23  21861927.00326   -943351.94926      5677.91026        40.33726
R21  21056079.48026    238670.47026     -1508.88526        41.35826
E02  26206838.58324     11657.03924       -98.46324        28.95324  26206657.50924      8464.34024       -73.38224        25.45224
E07  27008218.89926    122765.72026      -788.06726        40.27826  27008050.11626     92263.66126      -588.10626        38.80926
E15  25481453.25725   -310307.07725      4481.97025        35.45825  25481296.16626   -231661.79426      3347.37826        39.86226
E18  20448870.24225   -761804.34625      4550.55925        35.20225  20448693.96425   -585443.69825      3398.64325        31.41725
E27  25392610.06227   -235025.45327      3397.55327        45.60827  25392440.97925   -175495.27925      2536.93825        31.96325
E30  23778717.23725   -266134.93725      1586.30625        35.38525  23778551.75125   -205755.14525      1184.65425        30.33425
E34  24172267.98725   -361457.60125      2158.38425        32.67925  24172106.39925   -273350.59525      1612.05625        34.38425
E36  26738410.48425     60305.02725      -420.73225        35.14925                                                                
> 2023 11 29 03 23 00.0000494  0 23                      
G06  21130684.33225   -606847.69725      3641.12425        30.59525  21130510.45224   -455922.17724      2720.25224        27.17124
G11  23174931.62924   -840121.94624      5096.25024        29.14524  23174742.46025   -631212.68725      3807.70225        33.21425
G12  23266406.40225   -729919.42225      4374.78425        32.72925                                                                
G13  24523823.81024    251306.23324     -1627.08224        28.08524                                                                
G15  24809589.87825    169929.02125     -1057.73325        35.14125                                                                
G17  22379087.58025    154719.05125      -966.59825        29.73125                                                                
G19  20442551.21625    -61520.76625       313.25125        31.88625                                                                
G22  22448248.80124      2008.82224       -45.43124        27.52024                                                                
G24  21039857.41027   -408253.78527      2388.33127        45.90527  21039685.32926   -310808.18926      1784.01626        38.06826
R22  19216680.06925   -385561.11125      2233.84725        35.36725
R13  22445451.43726   -856150.48226      5154.83426        37.19126
R12  19667518.76027   -529129.80127      3135.53827        43.67827
R11  20987254.92625     76674.51825      -525.79725        34.89325
R23  21861204.80326   -949027.62426      5674.49926        41.06626
R21  21056690.15726    240179.92326     -1509.45426        38.43326
E02  26207186.04324     11766.31124       -99.01824        26.52824  26207005.56823      8538.64223       -73.73223        22.07823
E07  27008690.47326    123553.96326      -788.08426        39.54126  27008530.38326     92852.13326      -588.32126        39.03126
E15  25480935.81525   -314787.94125      4480.05425        33.72425  25480769.73026   -235008.39826      3347.05826        37.49726
E18  20448333.61325   -766353.46925      4549.80125        31.75125  20448157.93525   -588841.84225      3398.65925        33.49325
E27  25392293.48127   -238422.18727      3397.73727        45.87827  25392123.79825   -178032.15025      2537.55725        32.67925
E30  23778745.41725   -267720.87425      1585.74425        33.79225  23778579.03224   -206939.75124      1184.37324        28.79024
E34  24172197.83625   -363615.14625      2157.37225        33.74125  24172025.15525   -274962.18825      1612.05025        33.81525
E36  26738838.28726     60725.54326      -420.69126        36.61926  26738672.20224     45680.12924      -312.32624        24.71024
> 2023 11 29 03 23 01.0000504  0 23                      
G06  21130268.22026   -610493.59626      3640.85026        38.03526  21130110.52925   -458641.59625      2718.76925        32.00825
G11  23174250.80024   -845218.92424      5095.87924        29.34924  23174072.42325   -635021.97325      3805.39025        29.62225
G12  23265877.86826   -734293.62226      4374.42226        38.75026                                                                
G13  24524438.38525    252933.41325     -1626.41925        29.53825                                                                
G15  24810090.23225    170986.56925     -1060.43725        32.34725                                                                
G17  22379569.34725    155684.72825      -965.67425        30.88725                                                                
G19  20442794.04825    -61834.03025       312.32125        35.45625                                                                
G22  22448552.19125      2054.70325       -45.83625        31.06725                                                                
G24  21039697.92027   -410640.29227      2387.03027        44.50227  21039531.23626   -312590.51526      1782.64426        38.62626
R22  19216570.64525   -387793.92425      2231.85625        33.94025
R13  22444792.49326   -861304.97026      5154.35026        36.66626
R12  19667230.06027   -532265.02727      3134.77827        43.23627
R11  20987652.45126     77201.40426      -527.33826        39.26126
R23  21860425.94226   -954701.70126      5670.99026        37.06426
R21  21057262.16126    241689.12926     -1509.22726        39.51526
E02  26207509.81824     11878.82324       -99.71724        25.54324  26207323.64723      8613.75123       -73.75323        21.45423
E07  27009143.75926    124342.28026      -788.07226        37.36126  27008980.37226     93440.41226      -588.30126        40.57926
E15  25480383.89725   -319272.87825      4478.61525        31.24125  25480218.11225   -238355.20225      3342.13925        33.97625
E18  20447750.21725   -770902.78825      4549.03725        31.60025  20447591.32725   -592240.54725      3397.82025        33.95725
E27  25391940.32527   -241818.91627      3397.26027        46.09727  25391777.83825   -180568.78825      2536.66225        33.93125
E30  23778743.01925   -269305.95425      1585.41625        30.19825  23778576.63424   -208124.07124      1184.32324        28.70424
E34  24172099.20425   -365772.32625      2156.66425        34.16325  24171913.63225   -276573.17925      1611.04525        35.06625
E36  26739205.53326     61146.38626      -421.19826        39.34526  26739045.74424     45994.72624      -314.29924        27.14424
> 2023 11 29 03 23 02.0000515  0 22                      
G06  21129906.37026   -614134.59126      3641.10126        38.37426  21129748.97925   -461360.11025      2719.28025        31.98225
G11  23173611.64224   -850316.54624      5097.12824        28.59024  23173432.06724   -638833.48124      3805.97124        26.33024
G13  24525077.24225    254561.03325     -1627.61025        30.21425                                                                
G15  24810615.16925    172043.63025     -1058.24325        35.02225                                                                
G17  22380075.69625    156651.48225      -966.60725        35.20425                                                                
G19  20443064.76126    -62147.37726       312.38226        35.78326                                                                
G22  22448881.66325      2100.78125       -45.21925        31.00725                                                                
G24  21039576.20427   -413026.31927      2386.47027        45.37027  21039406.52226   -314372.78426      1782.23126        39.15326
R22  19216487.90225   -390025.34825      2231.25825        34.40125
R13  22444141.34426   -866460.36526      5156.71326        35.59826
R12  19666971.63927   -535400.38827      3135.12727        43.55127
R11  20988070.36126     77728.36426      -526.62526        38.17726
R23  21859693.24925   -960377.19925      5676.03625        35.26025
R21  21057876.43527    243199.63227     -1510.92727        41.99327
E02  26207879.16324     11978.84224      -100.35524        26.68824  26207672.30623      8688.08123       -72.85523        20.87723
E07  27009615.03326    125131.00526      -788.40126        37.79326  27009459.44026     94028.74926      -588.49226        40.40526
E15  25479863.15824   -323763.80424      4477.26824        26.75324  25479695.87425   -241702.21725      3346.20625        32.09925
E18  20447222.58224   -775451.54924      4548.32124        29.04524  20447055.29825   -595638.12125      3397.37225        35.23425
E27  25391627.94227   -245215.11327      3397.09227        45.10427  25391461.55725   -183104.72825      2536.75425        33.63825
E30  23778772.39825   -270891.67525      1585.07925        30.28625  23778604.51525   -209308.25125      1183.73125        30.44725
E34  24172007.46725   -367928.59825      2155.92925        35.09025  24171832.68826   -278184.24826      1611.14226        36.20126
E36  26739620.74626     61568.27826      -421.39326        39.02926  26739454.06125     46308.89725      -314.02025        31.61525
> 2023 11 29 03 23 03.0000525  0 23                      
G06  21129516.34026   -617774.16626      3638.63326        38.31326  21129355.05225   -464078.34925      2718.62825        31.12725
G11  23172941.30724   -855413.81224      5096.55124        28.65724  23172761.43124   -642647.11124      3806.93824        26.05424
G12  23264888.55326   -743040.35326      4372.40826        37.46326                                                                
G13  24525688.21925    256188.42225     -1626.87625        30.88425                                                                
G15  24811113.72326    173100.59226     -1056.33226        35.60826                                                                
G17  22380557.76225    157618.00625      -966.11125        34.43225                                                                
G19  20443304.89526    -62460.75026       312.50726        36.53026                                                                
G22  22449193.74725      2146.34025       -44.87225        31.70925                                                                
G24  21039423.61027   -415411.72027      2386.01627        45.10327  21039251.82926   -316154.04426      1781.95326        38.70526
R22  19216372.78225   -392256.22625      2230.16125        33.52125
R13  22443482.10126   -871616.32626      5157.35226        35.99326
R12  19666680.54027   -538535.44027      3136.25727        43.21327
R11  20988468.18626     78255.51826      -526.44726        38.67226
R23  21858933.27525   -966054.46625      5678.25925        35.01325
R21  21058452.03727    244710.69427     -1511.31427        42.59627
E02  26208191.84624     12078.42424      -100.43224        26.38724  26207990.08623      8762.45223       -73.96323        21.03123
E07  27010069.21826    125919.36626      -788.43026        37.37226  27009909.12926     94617.41326      -588.37626        40.71226
E15  25479309.74124   -328243.06824      4476.91124        27.61024  25479142.15725   -245043.06025      3346.75525        31.59725
E18  20446639.48624   -779999.94524      4547.78524        27.50624  20446489.29025   -599034.92625      3397.30725        35.23525
E27  25391279.28327   -248611.90727      3397.50727        45.19127  25391114.39725   -185641.16625      2536.67025        33.57625
E30  23778767.30225   -272477.23925      1585.13825        32.41325  23778602.41625   -210492.60425      1184.38225        30.33425
E34  24171897.14425   -370084.82525      2155.55025        35.49825  24171721.76526   -279794.51126      1610.63826        36.87426
E36  26739999.98326     61990.11126      -421.93026        38.91726  26739836.59625     46623.86325      -314.33925        33.05725
> 2023 11 29 03 23 04.0000536  0 23                      
G06  21129149.09426   -621412.28226      3636.28626        36.96926  21128992.60325   -466796.61225      2718.63825        31.05525
G11  23172301.84924   -860511.34224      5097.55424        29.15124  23172120.47524   -646460.42224      3806.76324        25.08624
G12  23264334.23726   -747413.58026      4372.09026        37.04726                                                                
G13  24526335.47125    257815.61125     -1627.11325        31.82025                                                                
G15  24811642.55726    174151.96326     -1055.66026        35.99026                                                                
G17  22381068.00925    158584.99125      -966.89025        34.31025                                                                
G19  20443575.90726    -62773.86026       313.17426        36.05226                                                                
G22  22449528.91525      2194.29425       -46.40325        30.71725                                                                
G24  21039297.39727   -417796.33227      2385.41727        45.30927  21039127.41526   -317935.00326      1781.71726        39.09526
R22  19216272.95125   -394485.77925      2228.63325        33.30325
R13  22442840.84526   -876773.09926      5155.45726        35.51226
R12  19666430.21427   -541670.02327      3134.96427        43.24327
R11  20988898.38826     78783.41826      -528.60526        38.86926
R23  21858207.17825   -971730.10825      5677.38125        34.82525
R21  21059075.30627    246222.06827     -1511.35527        42.78827
E02  26208544.70224     12178.43424      -100.28624        25.44624                                                                
E07  27010549.48626    126708.73626      -789.26926        37.87926  27010388.49726     95206.27226      -588.45126        40.79826
E15  25478790.80024   -332722.67324      4477.41024        27.25024  25478618.12025   -248381.70025      3346.55125        30.96625
