     3.03           OBSERVATION DATA    M                   RINEX VERSION / TYPE
GnssLogger          samsung 13          20231129 032242 UTC PGM / RUN BY / DATE
Google GnssLogger                                           MARKER NAME
Unknown                                                     MARKER NUMBER
Unknown             Unknown                                 OBSERVER / AGENCY
Unknown             GnssLogger          v3.0.6.4            REC # / TYPE / VERS
Unknown             Unknown                                 ANT # / TYPE
        0.0000        0.0000        0.0000                  ANTENNA: DELTA H/E/N
G    6 C1C D1C S1C C5Q D5Q S5Q                              SYS / # / OBS TYPES
R    3 C1C D1C S1C                                          SYS / # / OBS TYPES
C    6 C2I D2I S2I C7Q D7Q S7Q                              SYS / # / OBS TYPES
E    6 C1C D1C S1C C5Q D5Q S5Q                              SYS / # / OBS TYPES
  2023    11    29    03    22   42.0000000     GPS         TIME OF FIRST OBS
 7 R03  5 R04  6 R11  0 R12 -1 R21  4 R22 -3 R23  3         GLONASS SLOT / FRQ #

 C1C    0.000 C1P    0.000 C2C    0.000 C2P    0.000        GLONASS COD/PHS/BIS
                                                            END OF HEADER
> 2023 11 29 03 22 42.4225626  0 30                      
G06  21137395.04126      1999.67526        37.20026  21137348.57325      1493.69625        32.30025
G11  23186422.82925      3445.65025        32.40025  23186450.41025      2576.68925        31.90025
G12  23275510.95426      2723.48926        38.10026                                                
G13  24512870.14925     -3280.57925        35.10025                                                
G14  23488414.26524     -2513.25024        28.90024                                                
G15  24800532.40426     -2706.78326        39.80026                                                
G17  22370331.99727     -2616.40927        45.20027                                                
G19  20438074.87126     -1330.17926        40.90026                                                
G22  22442559.79525     -1693.90025        30.20025                                                
G24  21042332.05227       746.08927        46.10027  21042336.24926       557.59626        38.00026
R22  19219701.53325       568.65025        30.60025
R12  19673455.70528      1464.40328        48.10028
R11  20981350.36925     -2197.05025        32.20025
R21  21047350.57827     -3182.55127        47.20027
R03  24099612.24125     -1660.12625        34.60025
C34  21465016.93326       294.81626        36.70026  21465021.13025       223.21625        30.00025
C25  21579890.80828       711.02828        48.50028  21579888.11026       536.27026        35.50026
C24  22995799.49525     -2161.30025        33.80025  22995743.13426     -1631.17626        36.00026
C23  24748027.05328      2733.96228        50.00028  24748020.75725      2060.84425        30.00025
C12  22062657.99527     -1503.07827        42.70027                                                
C11  22101625.31926      1667.86326        40.20026                                                
E02  26200876.16625     -1749.04825        29.70025                                                
E07  27000093.48027     -2438.00227        45.30027  27000100.67526     -1820.44426        38.00026
E15  25489984.90626      2833.71226        40.80026  25489971.11625      2116.30525        35.20025
E27  25397692.89828      1745.49228        49.60028  25397691.40026      1303.58726        39.30026
E30  23778095.92226       -63.25726        37.10026  23778089.02724       -44.80024        28.70024
E34  24173451.72326       514.34226        35.60026  24173461.31625       384.30025        31.70025
E36  26731471.94227     -2066.75527        45.30027  26731469.54425     -1543.00825        34.80025
C43                                                  23655783.89725      2026.85425        33.20025
C44                                                  23693462.11325     -1908.01425        35.10025
> 2023 11 29 03 22 43.4225626  0 31                      
G06  21137007.60226      1998.80826        38.90026  21136968.03025      1492.62125        30.40025
G11  23185778.46825      3449.30025        31.50025  23185797.35425      2575.65925        30.40025
G12  23274972.72026      2722.70026        37.40026                                                
G13  24513507.40025     -3279.85025        34.60025                                                
G14  23488847.05825     -2519.40025        29.80025                                                
G15  24801032.35126     -2706.68226        35.70026                                                
G17  22370833.74227     -2616.82327        45.90027                                                
G19  20438335.28327     -1330.85327        41.70027                                                
G22  22442896.05425     -1693.90025        32.30025                                                
G24  21042190.14328       745.34528        49.30028  21042194.04025       556.83325        35.40025
R22  19219556.02625       568.60025        31.50025
R12  19673180.38928      1463.87628        47.60028
R11  20981776.56624     -2200.25024        27.90024
R23  21874979.41524      4001.50024        25.00024
R21  21047945.85827     -3183.32027        47.10027
R03  24099905.63125     -1661.07325        34.20025
C34  21464962.86326       294.09626        39.00026  21464964.36224       222.16624        29.20024
C25  21579754.59528       710.49728        48.40028  21579753.09625       535.45025        35.00025
C24  22996204.10724     -2160.85024        28.60024  22996158.23925     -1631.93625        35.40025
C23  24747501.70928      2733.77628        50.80028  24747496.01325      2060.41525        29.80025
C12  22062946.28827     -1503.72027        43.20027                                                
C11  22101297.23826      1667.31126        40.10026                                                
E02  26201217.22325     -1749.60725        29.90025                                                
E07  27000562.54827     -2438.55227        46.60027  27000562.84725     -1821.07625        35.40025
E15  25489440.67526      2832.97526        39.90026  25489432.28125      2115.57525        32.70025
E27  25397360.32128      1745.12628        49.60028  25397361.82026      1303.24426        38.70026
E30  23778109.90526       -63.82226        37.50026                                                
E34  24173351.78525       513.46125        35.30025  24173364.37625       383.52225        31.40025
E36  26731866.36227     -2067.66327        45.00027  26731864.56325     -1544.03525        35.30025
C43                                                  23655268.44625      2025.89725        33.90025
C44                                                  23693950.66726     -1908.94026        35.60026
> 2023 11 29 03 22 44.4225626  0 29                      
G06  21136619.50826      2000.69626        38.60026  21136589.22924      1494.85024        27.30024
G11  23185156.53524      3450.60024        29.10024  23185140.34625      2576.99225        29.70025
G12  23274464.70826      2725.73626        37.80026                                                
G13  24514099.02725     -3280.05025        32.90025                                                
G15  24801538.53725     -2703.70025        31.10025                                                
G17  22371334.83227     -2614.25327        46.60027                                                
G19  20438589.34426     -1328.72826        41.10026                                                
G22  22443204.37826     -1693.13626        35.70026                                                
G24  21042046.67928       747.06928        50.80028  21042053.27525       557.35325        33.10025
R22  19219481.81526       570.98926        35.60026
R12  19672905.31627      1465.90527        45.10027
R11  20982226.39225     -2193.45025        31.70025
R23  21874173.11025      4004.70025        33.20025
R21  21048536.88627     -3181.23927        46.70027
R03  24100207.95825     -1659.45025        32.80025
C43  23654716.96524      2689.30024        28.80024  23654752.64125      2026.94225        32.10025
C34  21464903.34226       296.49526        40.90026  21464904.84124       222.15024        26.30024
C25  21579619.52527       712.56327        46.70027  21579617.42725       536.54625        34.70025
C24  22996556.50025     -2165.40025        33.60025  22996575.68725     -1630.58525        34.00025
C23  24746977.20928      2736.09428        50.60028                                                
C12  22063236.02527     -1501.48127        43.00027                                                
C11  22100975.09826      1669.36126        40.90026                                                
E07  27001027.96227     -2436.67527        46.00027  27001024.96425     -1820.05025        33.40025
E15  25488897.58826      2834.84226        39.50026  25488891.59324      2116.95024        29.20024
E27  25397027.68928      1746.94528        48.80028  25397027.08926      1304.55326        38.30026
E30  23778113.93926       -62.02026        36.50026                                                
E34  24173256.88825       514.95625        34.70025  24173265.58224       384.30024        28.10024
E36  26732259.22727     -2065.88827        43.60027  26732258.32825     -1542.96925        34.20025
C44                                                  23694435.56925     -1907.62825        34.30025
> 2023 11 29 03 22 45.4225626  0 30                      
G06  21136227.79526      2004.37726        37.60026  21136208.00924      1498.45024        27.50024
G11  23184450.04125      3456.65025        29.50025  23184478.52125      2580.64225        29.70025
G12  23273944.08526      2729.65326        36.50026                                                
G13  24514723.61125     -3275.50025        32.60025                                                
G14  23489804.54824     -2512.35024        27.80024                                                
G15  24802048.90025     -2701.90025        30.50025                                                
G17  22371828.10727     -2610.37727        46.90027                                                
G19  20438840.68726     -1325.02126        39.80026                                                
G22  22443530.36926     -1689.17226        36.20026                                                
G24  21041902.29628       750.51628        50.40028  21041909.49126       560.70126        36.70026
R22  19219373.40626       574.46726        36.40026
R12  19672632.62127      1469.64427        45.80027
R23  21873457.32225      4006.60025        33.30025
R21  21049129.39227     -3177.57327        46.70027
R03  24100447.90925     -1656.75025        32.20025
C43  23654226.62124      2693.45024        29.20024  23654235.31525      2030.83625        33.10025
C34  21464848.89626       299.95226        41.30026  21464848.29624       227.38024        28.80024
C25  21579480.53827       716.16727        47.20027  21579477.84025       540.01425        34.50025
C24  22996973.32825     -2157.75025        32.50025  22996989.51725     -1627.10325        35.40025
C23  24746450.89028      2739.97128        49.80028  24746445.49424      2063.50024        26.20024
C12  22063523.34227     -1497.93927        43.20027                                                
C11  22100656.23626      1672.76826        41.40026                                                
E02  26201903.10124     -1745.05024        26.10024  26201874.92123     -1304.80023        22.10023
E07  27001491.55827     -2432.06727        46.40027  27001489.45925     -1816.01625        34.40025
E15  25488356.57926      2839.34326        39.50026  25488354.18125      2120.50225        31.40025
E27  25396694.43628      1751.72028        49.40028  25396694.13626      1308.15826        38.70026
E30  23778127.54626       -57.32326        37.20026                                                
E34  24173155.97425       519.21825        34.30025  24173166.16724       387.60024        28.60024
E36  26732652.97127     -2061.43227        43.20027  26732651.47225     -1539.26325        34.30025
C44                                                  23694922.54825     -1904.03425        34.90025
> 2023 11 29 03 22 46.4225626  0 30                      
G06  21135861.54526      2000.81826        38.80026  21135826.76925      1493.93125        29.70025
G11  23183814.87725      3448.80025        30.70025  23183826.56925      2577.79325        30.00025
G12  23273412.94926      2726.74626        36.70026                                                
G14  23490286.71125     -2515.80025        30.50025                                                
G15  24802557.74424     -2700.45024        28.80024                                                
G17  22372325.85927     -2613.35027        46.40027                                                
G19  20439106.09926     -1328.33726        40.90026                                                
G22  22443840.45026     -1692.06826        36.20026                                                
G24  21041761.78928       747.01428        50.80028  21041768.98426       557.50426        36.30026
R22  19219276.37026       570.58126        36.80026
R12  19672361.40527      1466.24827        45.80027
R11  20983140.67224     -2196.45024        25.10024
R23  21872692.64825      4003.64525        34.20025
R21  21049729.37327     -3181.08327        46.80027
R03  24100773.57925     -1661.30025        33.30025
C44  23695382.52624     -2527.40024        25.60024  23695407.70825     -1906.92025        35.20025
C43  23653701.48125      2694.65025        29.70025  23653718.56925      2027.68025        32.70025
C34  21464791.13227       296.67627        41.50027  21464791.73224       223.45024        26.10024
C25  21579343.32927       712.96127        46.90027  21579341.53125       537.00525        34.30025
C24  22997388.03725     -2165.10025        33.90025  22997404.22626     -1629.87926        35.60026
C23  24745924.85128      2737.11228        50.00028  24745921.85324      2063.00024        26.10024
C12  22063811.23927     -1501.21227        43.90027                                                
C11  22100337.05327      1669.58927        41.90027                                                
E02  26202226.97425     -1746.55125        29.70025                                                
E07  27001953.93427     -2435.40127        46.90027  27001952.43525     -1818.78625        33.80025
E15  25487818.84826      2835.81426        39.20026  25487814.65125      2117.47125        31.30025
E27  25396362.06228      1748.41528        49.40028  25396362.06226      1305.58926        39.60026
E30  23778135.43726       -60.85826        37.90026                                                
E34  24173061.03626       515.56026        35.90026  24173065.83325       384.76725        30.20025
E36  26733046.39527     -2065.03427        44.40027  26733042.79725     -1542.19325        35.20025
> 2023 11 29 03 22 47.4225626  0 30                      
G06  21135472.35126      1999.59826        38.30026  21135444.17125      1492.98025        29.60025
G11  23183178.05424      3453.10024        29.10024  23183167.56125      2577.02625        30.60025
G12  23272912.83226      2725.81626        41.40026                                                
G14  23490810.68424     -2513.60024        28.80024                                                
G15  24803105.10226     -2703.63926        37.60026                                                
G17  22372815.05727     -2614.74927        46.20027                                                
G19  20439359.36026     -1329.60526        40.30026                                                
G22  22444165.06226     -1693.74826        36.50026                                                
G24  21041622.92228       745.66028        51.20028  21041624.12125       557.23925        34.60025
R22  19219153.99126       568.62526        37.70026
R12  19672086.13227      1464.93127        46.20027
R11  20983477.27525     -2201.35025        29.90025
R23  21871942.20426      4002.17726        36.10026
R21  21050326.79627     -3182.78627        46.90027
R03  24101060.41725     -1660.15025        30.60025
C44  23695884.31526     -2533.68426        36.30026  23695892.70926     -1907.60426        36.20026
C43  23653194.46825      2688.90025        30.90025  23653201.06425      2027.11925        34.40025
C34  21464735.90727       295.23927        41.90027  21464739.20424       220.80024        27.40024
C25  21579205.06127       711.67227        47.40027  21579205.66125       536.43425        34.80025
C24  22997819.97526     -2164.51926        38.30026  22997821.17426     -1630.85726        35.90026
C23  24745398.95128      2736.15028        50.80028                                                
C12  22064100.47527     -1502.84727        43.50027                                                
C11  22100015.31227      1668.05027        42.10027                                                
E02  26202572.87024     -1747.90024        25.00024                                                
E07  27002419.74827     -2436.12327        45.90027  27002416.15025     -1819.04325        33.80025
E15  25487279.15826      2834.72126        39.20026  25487275.86025      2116.82325        30.40025
E27  25396028.33028      1747.99728        48.50028  25396028.03026      1305.14726        39.30026
E30  23778145.26726       -61.42226        37.70026                                                
E34  24172967.13726       514.11826        35.80026  24172973.13325       383.94125        29.90025
E36  26733437.56027     -2066.28327        43.90027  26733435.76225     -1542.98225        35.40025
> 2023 11 29 03 22 48.4225626  0 32                      
G06  21135082.29527      1992.23327        43.50027  21135066.10725      1487.74425        33.50025
G11  23182525.38025      3443.70025        32.30025                                                
G12  23272394.76528      2723.12028        50.40028                                                
G13  24516612.01126     -3283.08826        36.10026                                                
G14  23491308.31425     -2516.00025        30.60025                                                
G15  24803608.72728     -2708.46328        48.20028                                                
G17  22373319.88127     -2619.93427        42.90027                                                
G19  20439615.35727     -1334.74427        45.20027                                                
G22  22444513.99526     -1696.65226        37.10026                                                
G24  21041483.49227       740.81627        46.40027  21041484.99126       553.74026        41.20026
R22  19219036.74626       562.41326        40.50026
R12  19671816.89327      1460.44127        43.90027
R11  20983806.12227     -2204.68827        41.50027
R23  21871189.09926      3996.54326        40.60026
R21  21050916.16227     -3187.91127        45.00027
R03  24101443.82625     -1660.60025        30.40025
R04  24617259.53423       803.00023        21.20023
C44  23696376.24827     -2536.77727        42.60027  23696381.94524     -1913.65024        26.70024
C43  23652677.90026      2684.99826        41.00026  23652682.69725      2023.09225        30.80025
C34  21464677.42127       289.70727        44.70027  21464680.12025       218.43525        31.10025
C25  21579069.23028       707.30528        47.70028  21579070.12925       532.82825        34.30025
C24  22998237.86027     -2170.80227        41.70027                                                
C23  24744874.88827      2733.38427        46.80027  24744875.78726      2059.50026        38.70026
C12  22064387.35127     -1508.37027        42.50027                                                
C11  22099701.70327      1662.74327        46.30027                                                
E02  26202896.92024     -1751.35024        27.40024  26202878.03324     -1306.30024        24.80024
E07  27002881.10327     -2440.02527        41.90027  27002885.60024     -1824.35024        28.10024
E15  25486732.91026      2828.41126        39.10026                                                
E27  25395695.83428      1744.90028        48.80028  25395696.73326      1303.26126        39.40026
E30  23778164.12827       -66.85027        42.70027  23778165.02724       -48.95024        28.50024
E34  24172876.27425       507.44225        34.20025  24172876.87424       378.80024        27.80024
E36  26733832.66126     -2071.86226        39.40026  26733831.76225     -1553.81225        29.60025
> 2023 11 29 03 22 49.4225626  0 31                      
G06  21134688.57626      1995.72126        40.30026  21134690.37425      1489.58325        32.80025
G11  23181900.22025      3449.35025        32.50025                                                
G12  23271876.03128      2727.70128        49.60028                                                
G14  23491795.38424     -2516.60024        28.00024                                                
G15  24804123.07928     -2705.06828        47.50028                                                
G17  22373812.04827     -2614.67827        43.10027                                                
G19  20439865.29226     -1330.90126        40.70026                                                
G22  22444815.19426     -1695.02326        38.40026                                                
G24  21041339.50027       745.05227        46.20027  21041341.89826       555.87526        39.40026
R22  19218935.02426       565.57026        40.70026
R12  19671549.08627      1464.64327        43.30027
R11  20984229.93625     -2201.30025        33.30025
R23  21870429.63327      3998.78127        47.10027
R21  21051519.55227     -3182.88227        43.10027
R03  24101714.44625     -1661.45025        33.80025
R04  24617158.71224       806.30024        27.70024
C44  23696864.81827     -2531.68327        41.60027  23696866.91625     -1908.91025        30.20025
C43  23652162.76427      2687.46427        45.70027  23652165.16324      2024.62524        29.10024
C34  21464621.56827       293.26427        46.60027  21464626.96425       220.14925        34.20025
C25  21578931.23327       710.80727        42.40027  21578932.73225       535.16925        34.10025
C24  22998664.97226     -2165.31426        35.70026  22998650.28224     -1635.60024        26.70024
C23  24744354.95627      2738.27927        43.70027  24744349.55927      2062.88527        43.00027
C12  22064676.55827     -1503.69227        42.60027                                                
C11  22099379.03427      1665.59227        45.80027                                                
E02  26203215.50724     -1748.90024        27.00024  26203207.41324     -1306.95024        27.10024
E07  27003345.08926     -2437.69826        39.30026  27003352.28424     -1821.00024        28.90024
E15  25486196.19026      2830.80726        39.10026  25486196.19024      2113.15024        28.50024
E27  25395364.47128      1749.12228        48.10028  25395362.97226      1305.96526        36.90026
E30  23778175.72727       -62.47027        44.80027  23778173.92925       -46.79825        33.40025
E34  24172782.34726       510.88926        35.50026  24172780.84824       383.00024        27.20024
E36  26734225.59726     -2066.87526        38.80026  26734227.69525     -1544.00025        30.90025
> 2023 11 29 03 22 50.4225626  0 30                      
G06  21134309.36227      2000.88727        42.30027  21134308.16325      1495.03125        30.80025
G11  23181222.11425      3456.45025        34.40025                                                
G12  23271357.41428      2733.86828        49.40028                                                
G14  23492259.18725     -2504.70025        32.50025                                                
G15  24804636.94728     -2699.38428        48.00028                                                
G17  22374319.32127     -2608.23227        42.70027                                                
G19  20440127.33426     -1323.65526        39.70026                                                
G22  22445170.77125     -1684.20025        33.90025                                                
G24  21041196.82228       750.82128        48.60028  21041200.12026       561.21826        38.50026
R22  19218840.01427       571.16327        41.80027
R12  19671261.60927      1471.03227        45.70027
R11  20984641.87426     -2193.85926        37.30026
R23  21869682.57327      4004.28627        46.00027
R21  21052108.36827     -3176.73327        41.50027
R03  24101991.77826     -1654.11526        38.00026
C44  23697346.90826     -2525.45326        40.50026  23697353.50324     -1903.85024        28.10024
C43  23651644.74727      2692.98227        46.60027  23651649.24424      2029.75024        27.50024
C34  21464566.72927       298.88627        45.20027  21464568.22825       226.17025        29.70025
C25  21578795.45027       716.74927        42.40027  21578796.65025       540.68225        34.20025
C24  22999081.10726     -2159.05526        35.50026  22999071.81424     -1630.45024        26.20024
C23  24743822.54826      2743.04826        39.00026  24743822.54826      2068.73626        40.70026
C12  22064964.98227     -1497.58127        44.60027                                                
C11  22099057.38127      1671.05427        45.10027                                                
E02  26203546.80224     -1740.20024        27.00024                                                
E07  27003809.49126     -2431.05526        40.10026  27003810.09125     -1814.85125        32.70025
E15  25485661.08426      2837.39526        38.50026                                                
E27  25395029.62728      1756.55428        48.40028  25395029.32726      1311.88226        36.60026
E30  23778188.64226       -55.20126        41.00026  23778186.54425       -40.81125        34.00025
E34  24172674.74526       517.79826        39.70026  24172678.64224       385.60024        28.80024
E36  26734620.14726     -2059.49326        38.10026  26734624.64424     -1538.05024        27.20024
> 2023 11 29 03 22 51.4225626  0 30                      
G06  21133931.46926      1997.31226        40.90026                                                
G11  23180559.41825      3453.22425        35.20025                                                
G12  23270838.02028      2730.25028        51.40028                                                
G14  23492756.68924     -2515.50024        28.10024                                                
G15  24805153.33528     -2703.18928        47.80028                                                
G17  22374810.22727     -2610.96827        42.70027                                                
G19  20440368.81327     -1328.12927        42.60027                                                
G22  22445466.81226     -1690.78026        37.20026                                                
G24  21041054.26728       746.46528        47.80028  21041057.56526       557.41326        39.10026
R22  19218711.24927       567.00827        41.80027
R12  19670993.14127      1467.07627        45.00027
R11  20985031.45126     -2198.45226        36.10026
R23  21868928.44227      4000.33227        44.80027
R21  21052708.09927     -3180.28227        47.10027
R03  24102410.43425     -1661.84325        34.20025
C44  23697835.41626     -2528.59326        41.10026  23697839.91324     -1905.97624        28.90024
C43  23651128.65027      2689.01527        47.10027  23651130.74924      2026.70024        28.20024
C34  21464508.11627       294.99227        43.40027  21464514.41224       222.05024        27.40024
C25  21578658.59127       713.08527        44.20027  21578658.89126       537.41826        36.20026
C24  22999493.46825     -2165.05025        31.50025                                                
C23  24743301.65526      2738.92926        39.10026  24743295.05927      2065.56627        41.60027
C12  22065251.13027     -1501.22227        45.10027                                                
C11  22098737.04827      1667.08427        41.90027                                                
E02  26203894.70725     -1749.25525        30.90025                                                
E07  27004269.81926     -2435.47126        37.50026  27004273.41625     -1818.78525        34.80025
E15  25485116.80725      2834.02125        34.20025  25485121.60324      2118.10024        25.30024
E27  25394697.30327      1752.24227        46.20027  25394695.50425      1308.55025        34.10025
E30  23778197.18227       -59.26527        42.10027  23778195.38425       -44.24925        34.80025
E34  24172578.95826       513.58926        39.60026  24172581.35624       384.05024        28.90024
E36  26735013.32126     -2063.41426        37.80026  26735010.62325     -1540.70925        31.00025
> 2023 11 29 03 22 52.4225626  0 30                      
G06  21133554.70926      1993.69026        39.80026  21133557.40724      1489.70024        24.60024
G11  23179917.04125      3448.25025        32.20025  23179890.36023      2576.15023        22.20023
G12  23270315.86028      2726.09628        49.60028                                                
G14  23493207.35525     -2512.85025        31.10025                                                
G15  24805667.55828     -2707.84928        48.20028                                                
G17  22375301.66527     -2614.10027        44.30027                                                
G19  20440621.91627     -1331.53727        43.80027                                                
G22  22445775.37725     -1693.15025        34.40025                                                
G24  21040912.84327       741.92327        46.20027  21040914.94226       554.47726        36.80026
R22  19218624.08726       562.64126        39.10026
R12  19670720.70827      1463.17427        44.60027
R11  20985486.61425     -2200.34325        34.00025
R23  21868190.43126      3995.61326        41.40026
R21  21053294.27227     -3183.66727        44.40027
R03  24102680.62625     -1664.17225        34.10025
C44  23698317.26027     -2531.54827        44.00027                                                
C43  23650612.48627      2684.62227        45.90027  23650617.88225      2023.43525        35.20025
C34  21464450.33426       290.91526        39.20026  21464459.62824       221.24624        28.80024
C25  21578520.16528       709.32128        47.70028  21578522.56426       535.06226        37.10026
C24  22999901.26426     -2168.28826        37.60026  22999897.96624     -1634.25024        26.50024
C23  24742773.79827      2736.84027        42.90027  24742769.30127      2063.15227        42.60027
C12  22065539.30927     -1504.75427        41.90027                                                
C11  22098417.24827      1662.84427        42.50027                                                
E02  26204211.66625     -1748.00025        30.60025  26204202.97224     -1305.60024        26.00024
E07  27004734.87526     -2439.63826        40.70026  27004736.67426     -1821.67426        35.80026
E15  25484586.85225      2830.86925        33.20025  25484579.35724      2112.30024        29.20024
E27  25394363.71226      1748.82326        41.00026  25394361.31425      1306.10125        32.70025
E30  23778208.35327       -62.08627        43.80027  23778208.05326       -46.22926        38.20026
E34  24172482.80226       510.61326        40.90026  24172481.90324       380.85024        28.90024
E36  26735405.22826     -2065.98326        40.40026  26735402.53025     -1542.25925        31.60025
> 2023 11 29 03 22 53.4225626  0 31                      
G06  21133165.63627      1991.71127        44.00027  21133169.23325      1487.29725        32.10025
G11  23179233.57225      3447.19325        35.20025                                                
G12  23269800.27428      2719.92328        49.90028                                                
G14  23493633.41825     -2515.50025        30.70025                                                
G15  24806182.65928     -2711.92728        47.60028                                                
G17  22375807.47328     -2616.69028        49.80028                                                
G19  20440874.39927     -1334.88227        44.30027                                                
G22  22446096.51227     -1696.10227        42.40027                                                
G24  21040772.29828       736.53528        50.80028  21040776.79525       549.69925        30.40025
R22  19218511.12326       559.59626        39.70026
R12  19670444.95627      1458.92427        45.50027
R11  20985872.20526     -2203.64326        36.30026
R23  21867491.97225      3998.45025        31.90025
R21  21053889.11827     -3187.33027        42.50027
R03  24102926.51325     -1671.90025        33.70025
R04  24616618.19223       801.85023        22.30023
C44  23698805.98028     -2534.15928        47.70028  23698809.27725     -1909.75025        32.10025
C43  23650093.60326      2681.41826        36.00026  23650098.69924      2021.15024        28.40024
C34  21464396.72926       288.24026        39.50026                                                
C25  21578382.31828       705.16428        48.30028  21578387.41525       531.19325        31.50025
C24  23000317.43326     -2169.61426        40.80026                                                
C23  24742247.12026      2731.44426        37.70026  24742243.82326      2058.15826        37.60026
C12  22065830.76527     -1507.30527        43.50027                                                
C11  22098098.02727      1660.12227        43.60027                                                
E02  26204536.39925     -1740.02425        31.60025                                                
E07  27005205.60726     -2443.88326        37.90026  27005199.01124     -1825.25024        27.90024
E15  25484040.38826      2828.49326        38.00026  25484043.68524      2111.00024        29.40024
E27  25394032.49927      1742.70027        43.40027  25394031.89925      1301.21025        33.00025
E30  23778222.20127       -65.66527        41.50027  23778219.20326       -49.02426        36.20026
E34  24172386.32727       508.27827        43.60027  24172388.42525       379.40125        30.10025
E36  26735795.91527     -2069.22927        44.80027  26735797.41426     -1545.39826        38.40026
> 2023 11 29 03 22 54.4225626  0 30                      
G06  21132782.21327      1997.24727        42.10027  21132787.01025      1490.81225        31.40025
G11  23178601.32225      3449.90025        34.00025  23178568.04524      2575.50024        25.90024
G12  23269282.84428      2725.73428        51.10028                                                
G14  23494120.29325     -2510.90025        34.00025                                                
G15  24806696.81526     -2706.38326        39.70026                                                
G17  22376303.04127     -2610.91127        45.20027                                                
G19  20441133.13227     -1329.35327        45.90027                                                
G22  22446417.30228     -1690.16928        49.20028                                                
G24  21040630.80828       741.62928        51.70028  21040633.20626       553.36826        35.50026
R22  19218402.01126       564.46926        41.30026
R12  19670168.26027      1464.59127        46.40027
R11  20986282.33326     -2197.55126        35.90026
R23  21866710.12526      4001.00326        35.60026
R21  21054489.31428     -3181.58228        50.20028
R03  24103241.30725     -1662.30025        32.50025
C44  23699289.85727     -2528.32827        47.00027  23699296.15226     -1905.77726        39.70026
C43  23649581.86926      2687.47026        37.10026                                                
C34  21464339.48127       293.47527        42.20027  21464343.97824       220.00024        28.50024
C25  21578249.22327       710.64927        46.90027  21578249.82225       535.15225        31.20025
C24  23000747.04826     -2163.82126        36.90026                                                
C23  24741720.69727      2736.88827        43.70027  24741720.69726      2061.99226        39.40026
C12  22066120.37627     -1501.82927        46.50027                                                
C11  22097784.75627      1665.32727        43.00027                                                
E02  26204878.17425     -1739.12025        34.50025  26204869.48024     -1302.45024        26.30024
E07  27005672.99525     -2434.95025        31.90025                                                
E15  25483507.96826      2833.30426        40.30026  25483501.37324      2116.65024        28.90024
E27  25393699.44127      1748.06327        46.50027  25393698.84225      1305.12325        32.80025
E30  23778230.30726       -60.23726        41.00026  23778231.20726       -45.02826        36.80026
E34  24172286.50826       513.57526        39.30026  24172289.50625       383.29425        32.90025
E36  26736190.75427     -2064.00827        46.50027  26736188.65526     -1541.41326        37.70026
> 2023 11 29 03 22 55.4225626  0 30                      
G06  21132405.60927      1997.73227        41.90027  21132408.60725      1492.03325        34.20025
G11  23177955.80426      3455.48126        35.60026                                                
G12  23268763.53928      2726.39228        51.30028                                                
G14  23494590.60325     -2507.65025        31.50025                                                
G15  24807223.18626     -2705.48726        38.50026                                                
G17  22376800.03328     -2609.45128        48.70028                                                
G19  20441385.19327     -1328.72027        42.20027                                                
G22  22446737.41628     -1689.23628        48.20028                                                
G24  21040489.24228       741.96328        49.80028  21040494.63826       554.45326        36.20026
R22  19218291.62326       564.85126        41.00026
R12  19669898.98127      1465.20227        44.80027
R11  20986704.67626     -2196.16726        35.70026
R23  21865951.58626      3999.51726        36.00026
R21  21055091.53327     -3180.78127        46.60027
R03  24103556.62426     -1661.68926        35.60026
C44  23699776.35527     -2527.42427        44.40027  23699779.05426     -1904.12926        38.00026
C43  23649070.95826      2687.66526        38.50026  23649069.45924      2024.25024        23.90024
C34  21464281.85627       294.01227        42.80027  21464287.25225       221.93225        29.60025
C25  21578113.05227       711.10927        44.40027  21578113.35225       536.54225        31.80025
C24  23001158.59826     -2162.50626        36.80026                                                
C23  24741195.09627      2737.26627        44.50027  24741192.69826      2063.29226        38.00026
C12  22066405.41527     -1501.14127        44.40027                                                
C11  22097459.11726      1665.50026        40.80026                                                
E02  26205197.68825     -1741.55025        34.10025  26205200.98625     -1302.06025        30.90025
E07  27006125.31825     -2436.37225        32.70025                                                
E15  25482963.48126      2834.70126        38.80026  25482960.78324      2113.85024        27.80024
E27  25393366.60728      1749.52828        47.60028  25393361.51124      1304.85024        28.50024
E30  23778241.03527       -58.48827        41.70027  23778242.23526       -43.70326        35.50026
E34  24172191.11026       515.01626        39.00026  24172188.11224       384.90024        28.10024
E36  26736581.91927     -2062.07327        45.40027  26736581.61926     -1539.79026        37.30026
> 2023 11 29 03 22 56.4225626  0 32                      
G06  21132025.77926      1996.55826        41.40026  21132029.67625      1489.89625        32.10025
G11  23177261.19225      3450.90025        32.30025  23177255.19624      2577.00024        28.30024
G12  23268244.60628      2725.06628        52.00028                                                
G14  23495086.46625     -2512.44425        35.30025                                                
G15  24807737.33726     -2707.14226        40.90026                                                
G17  22377292.89927     -2610.43627        46.70027                                                
G19  20441637.02527     -1329.96427        44.60027                                                
G22  22447059.10027     -1690.21327        45.30027                                                
G24  21040344.14927       739.89827        47.40027  21040354.34225       551.82925        32.90025
R22  19218190.30027       562.60427        41.90027
R12  19669626.77727      1463.83327        47.30027
R11  20987137.58325     -2196.88825        34.70025
R23  21865206.60926      3998.37726        36.70026
R21  21055674.63627     -3182.54527        45.90027
R03  24103906.78925     -1664.55025        33.40025
R04  24616144.17423       805.45023        23.10023
C44  23700261.42727     -2528.38627        45.30027  23700266.22326     -1905.56926        38.40026
C43  23648555.62226      2685.73126        39.40026                                                
C34  21464227.00127       292.36927        44.60027  21464232.69724       219.98424        28.90024
C25  21577978.15328       709.78928        48.00028  21577976.35425       534.24225        31.30025
C24  23001564.52426     -2163.87826        39.20026                                                
C23  24740668.96727      2736.12027        45.50027  24740668.06826      2061.84426        38.40026
C12  22066695.62127     -1502.48627        43.60027                                                
C11  22097141.34326      1664.08726        38.50026                                                
E02  26205526.26825     -1744.42225        32.70025  26205534.36225     -1302.52325        33.60025
E07  27006606.19225     -2440.34525        33.20025  27006599.29624     -1820.10024        26.00024
E15  25482431.95626      2832.73326        38.40026  25482424.76125      2115.26525        30.50025
E19  29039713.80123      1075.55023        19.80023                                                
E27  25393032.04627      1747.59427        46.90027  25393031.44626      1304.76926        36.70026
E30  23778254.23327       -60.46727        42.10027  23778254.53326       -45.02326        37.80026
E34  24172093.98427       512.96627        41.70027  24172093.38425       382.84525        33.00025
E36  26736973.15527     -2063.93927        47.40027  26736976.15326     -1541.27926        40.60026
> 2023 11 29 03 22 57.4225626  0 30                      
G06  21131645.45826      1997.93226        41.10026  21131648.75624      1491.60624        29.30024
G11  23176656.92625      3451.95025        32.30025  23176599.06724      2577.90024        28.50024
G12  23267725.18128      2726.12928        52.00028                                                
G14  23495558.45626     -2510.20426        37.10026                                                
G15  24808247.99926     -2706.48626        40.20026                                                
G17  22377791.27028     -2609.00828        49.30028                                                
G19  20441895.26326     -1328.80726        38.70026                                                
G22  22447379.99427     -1689.30227        42.60027                                                
G24  21040211.75728       740.73928        51.10028  21040212.05626       553.28426        39.10026
R22  19218094.78227       563.37527        43.80027
R12  19669351.68327      1464.96527        45.60027
R11  20987510.64126     -2196.65826        39.90026
R23  21864446.75126      3999.33126        36.30026
R21  21056276.43527     -3181.08327        45.60027
R03  24104146.43926     -1664.87926        37.10026
C44  23700748.70526     -2526.86526        41.40026  23700751.40326     -1904.20726        37.90026
C43  23648037.09726      2686.43526        38.70026  23648037.39724      2024.20024        26.60024
C34  21464172.25527       293.27327        45.60027  21464173.75424       222.25024        27.50024
C25  21577835.86727       710.54827        44.10027  21577841.26425       536.14025        34.90025
C24  23001978.35426     -2163.26126        38.40026  23001979.85323     -1631.80023        21.60023
C23  24740143.24727      2737.22927        47.30027  24740141.74826      2062.90526        36.30026
C12  22066986.23627     -1501.34827        44.30027                                                
C11  22096821.58126      1664.58126        38.00026                                                
E02  26205871.74525     -1743.94325        35.10025  26205864.84925     -1300.89025        34.80025
E07  27007073.38425     -2434.41925        33.60025  27007054.79724     -1820.40024        28.30024
E15  25481884.95026      2834.14426        37.70026  25481885.25025      2116.44725        30.30025
E27  25392700.29227      1749.49227        46.60027  25392699.99226      1306.38426        40.60026
E30  23778265.44227       -58.27227        43.20027  23778265.14226       -43.66626        38.00026
E34  24171999.06526       514.54626        41.40026  24171993.07025       384.10525        33.30025
E36  26737367.19827     -2062.18627        47.00027  26737368.39726     -1539.87626        39.70026
> 2023 11 29 03 22 58.4225626  0 30                      
G06  21131274.60726      1990.71626        39.00026  21131271.60925      1487.07525        31.00025
G11  23175947.31025      3444.65025        33.50025  23175944.31225      2572.29225        32.30025
G12  23267208.93128      2720.79628        51.10028                                                
G14  23496031.52026     -2514.86826        39.10026                                                
G15  24808763.63526     -2711.57626        41.40026                                                
G17  22378290.11728     -2613.77228        48.80028                                                
G19  20442146.18127     -1334.12127        44.80027                                                
G22  22447706.46127     -1693.61427        46.60027                                                
G24  21040070.24728       734.76428        49.30028  21040072.34526       548.84826        40.30026
R22  19217980.55327       557.31127        45.00027
R12  19669075.26727      1459.31027        43.70027
R11  20987929.14327     -2202.57527        44.00027
R23  21863702.05826      3992.00526        35.90026
R21  21056870.91627     -3186.81427        41.90027
R03  24104468.10826     -1670.01626        37.10026
C44  23701234.36127     -2531.82827        44.80027  23701237.05926     -1907.78626        39.70026
C43  23647521.44626      2681.13926        37.40026  23647527.44225      2020.71625        29.80025
C34  21464116.18627       287.71227        46.40027  21464119.78325       217.02125        30.40025
C25  21577703.95127       705.23227        46.50027  21577705.45026       531.38326        36.70026
C24  23002396.85626     -2168.25726        37.60026  23002395.05825     -1633.89325        30.30025
C23  24739619.50228      2732.03128        49.60028  24739618.30325      2059.22525        33.70025
C12  22067272.82927     -1506.55227        46.70027                                                
C11  22096504.99226      1658.98526        38.60026                                                
E02  26206197.91127     -1747.19727        41.70027  26206198.21125     -1304.59325        33.90025
E07  27007537.75525     -2443.26925        31.60025                                                
E15  25481354.01026      2828.44826        37.50026                                                
E27  25392366.91528      1744.10228        48.30028  25392366.31526      1302.38126        36.70026
E30  23778278.02527       -63.62527        44.50027  23778277.42526       -47.63126        38.20026
E34  24171899.52727       508.77627        44.60027  24171897.12825       379.77225        35.10025
E36  26737760.51827     -2067.27227        47.30027  26737760.51826     -1543.70226        39.10026
> 2023 11 29 03 22 59.4225626  0 30                      
G06  21130890.58526      1991.68726        39.50026  21130890.28525      1485.77025        33.40025
G11  23175303.96726      3445.26526        37.30026  23175290.47726      2571.95026        36.00026
G12  23266693.00028      2721.05828        49.10028                                                
G14  23496506.10426     -2514.83926        39.80026                                                
G15  24809281.68826     -2711.83226        41.40026                                                
G17  22378785.08628     -2613.33428        49.30028                                                
G19  20442398.61827     -1333.76327        44.30027                                                
G22  22448022.15427     -1693.46327        45.60027                                                
G24  21039927.55827       734.07227        47.40027  21039929.95625       547.22925        34.10025
R22  19217872.34027       556.56727        45.60027
R12  19668800.36926      1458.87626        41.00026
R11  20988340.77027     -2202.80127        42.40027
R23  21862972.07626      3991.66726        36.20026
R21  21057470.21326     -3186.97926        40.40026
R03  24104785.00126     -1670.80726        39.70026
C44  23701721.23627     -2531.52627        43.70027  23701723.33526     -1908.24526        38.80026
C43  23647005.21525      2680.31025        35.20025  23647008.81324      2018.35024        27.70024
C34  21464058.93827       287.38327        45.30027  21464062.53525       215.88425        29.90025
C25  21577569.05628       704.99828        48.70028  21577569.35625       530.81025        34.50025
C24  23002813.88026     -2168.78626        39.80026  23002814.18025     -1634.98425        29.90025
C23  24739095.17728      2732.40728        49.80028  24739094.27826      2058.57226        35.60026
C12  22067561.54127     -1506.38627        46.10027                                                
C11  22096180.32926      1659.04426        41.30026                                                
E02  26206529.79326     -1747.07126        40.60026  26206531.29225     -1305.09025        32.10025
E07  27007994.65124     -2441.30024        26.90024  27007997.94824     -1824.35024        29.40024
E15  25480809.89925      2828.38525        34.20025  25480808.70024      2113.60024        27.40024
E27  25392035.35627      1743.83927        45.00027  25392036.55525      1301.92425        32.80025
E30  23778290.62827       -63.71627        43.40027  23778289.12926       -47.72526        38.10026
E34  24171800.00727       508.33027        41.90027  24171798.80825       379.30425        31.90025
E36  26738152.65827     -2067.30727        46.60027  26738153.25826     -1543.75926        36.10026
> 2023 11 29 03 23 00.4225626  0 30                      
G06  21130512.99926      1997.62326        41.30026  21130513.29925      1491.52025        32.90025
G11  23174640.97925      3454.82525        35.40025  23174631.68525      2577.18125        30.00025
G12  23266175.11128      2727.39628        49.10028                                                
G14  23496991.62026     -2508.11526        38.70026                                                
G15  24809795.98527     -2705.74927        41.60027                                                
G17  22379284.69328     -2606.37128        49.70028                                                
G19  20442649.69726     -1328.08626        41.10026                                                
G22  22448347.88127     -1686.39327        45.40027                                                
G24  21039788.60728       740.09128        49.30028  21039793.40325       552.05025        32.20025
R22  19217778.95827       562.49627        44.40027
R12  19668534.60626      1465.56226        40.00026
R11  20988750.44027     -2196.20527        45.10027
R23  21862213.15425      3998.09425        34.80025
R21  21058054.06227     -3179.71027        43.20027
R03  24105093.94025     -1665.29425        35.20025
C44  23702205.25427     -2524.78827        42.40027  23702208.85126     -1902.94626        38.30026
C43  23646491.82326      2686.69826        35.60026  23646494.52224      2026.90024        27.30024
C34  21464006.62727       293.51427        43.80027  21464010.22425       221.10025        31.60025
C25  21577433.40328       711.25428        49.60028  21577432.20425       538.33825        32.30025
C24  23003225.34827     -2161.98027        41.70027  23003225.34825     -1629.20725        32.00025
C23  24738569.19428      2738.74628        48.20028  24738565.89625      2063.71925        33.70025
C12  22067850.99427     -1500.04427        45.50027                                                
C11  22095865.40027      1664.75127        41.90027                                                
E02  26206867.21226     -1738.94026        36.30026  26206861.21725     -1299.27725        32.90025
E07  27008461.58025     -2434.70325        33.10025  27008454.98525     -1819.99525        33.90025
E15  25480277.02025      2844.89425        32.20025  25480273.12324      2118.65024        28.20024
E27  25391705.43727      1750.53027        43.50027  25391701.84025      1307.55625        34.70025
E30  23778302.17326       -56.97226        40.90026  23778300.07426       -42.46626        36.00026
E34  24171700.32927       514.98927        41.70027  24171701.82825       384.67225        32.10025
E36  26738547.33827     -2060.30727        46.80027  26738546.13926     -1538.45226        36.80026
> 2023 11 29 03 23 01.4225626  0 31                      
G06  21130135.41626      1994.10226        40.80026  21130131.81824      1489.45024        26.70024
G11  23174008.27225      3453.80025        34.50025  23173976.49425      2574.89025        34.60025
G12  23265653.92728      2724.95528        50.60028                                                
G14  23497456.15426     -2510.13626        37.90026                                                
G15  24810306.38626     -2706.42726        36.70026                                                
G17  22379779.80528     -2608.67928        50.30028                                                
G19  20442904.07627     -1330.25927        42.50027                                                
G22  22448672.41226     -1688.46226        40.50026                                                
G24  21039649.35828       737.19228        51.30028  21039655.05425       550.39325        31.00025
R22  19217672.08727       559.43527        42.60027
R12  19668252.95627      1463.04027        44.90027
R11  20989162.50927     -2198.80227        43.30027
R23  21861495.90625      4001.53025        34.20025
R21  21058655.00127     -3182.45727        45.30027
R03  24105450.54825     -1665.70525        34.90025
R04  24615445.48623       801.30023        22.30023
C44  23702691.07327     -2527.00027        45.20027  23702693.47126     -1904.20826        38.90026
C43  23645986.22925      2686.10625        34.50025                                                
C34  21463947.12327       290.81427        42.40027  21463951.91925       219.28525        29.60025
C25  21577296.55328       708.65628        49.10028  21577297.15225       534.00025        31.70025
C24  23003644.01327     -2164.61827        43.90027  23003642.21425     -1631.30525        32.40025
C23  24738044.41227      2736.18127        47.40027  24738042.61425      2062.18525        32.80025
C12  22068137.75027     -1502.71027        43.40027                                                
C11  22095547.17527      1661.85927        42.60027                                                
E02  26207192.04326     -1741.14726        37.00026  26207191.44326     -1300.67026        35.60026
E07  27008914.72226     -2440.90126        36.20026  27008919.81825     -1822.59925        34.60025
E15  25479739.94725      2835.70025        31.90025  25479731.25324      2115.90024        29.00024
E27  25391370.72427      1748.32127        43.30027  25391370.12425      1305.55125        32.40025
E30  23778309.22326       -59.28526        37.40026  23778311.32226       -44.25826        35.80026
E34  24171606.05026       512.44326        39.00026  24171605.75025       382.88125        33.60025
E36  26738938.72227     -2062.54827        47.30027  26738938.72226     -1540.20926        39.30026
> 2023 11 29 03 23 02.4225626  0 32                      
G06  21129757.13727      1990.64227        42.30027  21129750.84125      1484.43425        29.80025
G11  23173354.48425      3449.10025        32.90025  23173319.10925      2572.89425        30.50025
G12  23265132.34828      2722.01628        48.80028                                                
G14  23497956.56726     -2513.18226        36.50026                                                
G15  24810829.88326     -2710.56426        38.80026                                                
G17  22380274.82228     -2611.37428        50.10028                                                
G19  20443159.85927     -1333.45427        41.50027                                                
G22  22448998.34526     -1692.15626        40.40026                                                
G24  21039509.71428       733.69428        51.50028  21039516.31024       548.75024        27.30024
R22  19217557.32627       555.89627        43.50027
R12  19667976.30726      1459.76226        40.70026
R11  20989581.37927     -2202.12027        42.60027
R23  21860784.85725      4000.60025        31.20025
R21  21059240.55527     -3185.79627        42.20027
R03  24105725.51725     -1670.60625        34.20025
R04  24615265.07024       794.80024        27.80024
C44  23703176.79627     -2529.82027        42.90027  23703180.39326     -1906.52526        38.60026
C43  23645467.04725      2682.22225        34.40025                                                
C34  21463891.12127       287.65227        42.60027  21463899.81525       216.67825        32.00025
C25  21577159.30728       705.50028        49.40028  21577162.90525       531.84325        33.50025
C24  23004059.88427     -2167.63627        43.50027  23004058.38525     -1633.46425        32.40025
C23  24737518.33627      2733.35027        45.90027  24737517.43726      2062.15526        35.90026
C12  22068427.10927     -1505.61627        43.90027                                                
C11  22095225.55727      1658.63827        42.80027                                                
E02  26207529.36926     -1744.72826        35.50026  26207525.77124     -1303.50024        28.60024
E07  27009379.45926     -2442.71426        36.10026  27009383.65625     -1824.83225        35.30025
E15  25479199.18125      2829.93725        31.80025  25479197.08324      2112.10024        27.90024
E19  29038505.22523      1074.10023        20.30023                                                
E27  25391038.91327      1745.44527        45.00027  25391041.31125      1303.60425        32.40025
E30  23778325.77126       -61.92226        38.90026  23778321.27426       -46.30826        35.50026
