NMEA,$GPGSV,3,1,12,06,50,141,32,11,26,175,27,12,24,296,33,13,12,205,30,1*6C,1701228144695
NMEA,$GPGSV,3,2,12,14,21,094,24,15,10,239,35,17,38,046,40,19,66,035,36,1*60,1701228144695
NMEA,$GPGSV,3,3,12,22,39,081,25,24,55,288,41,44,00,000,33,46,00,000,32,1*61,1701228144695
NMEA,$GPGSV,1,1,04,06,50,141,27,11,26,175,27,14,21,094,16,24,55,288,33,8*61,1701228144695
NMEA,$GLGSV,2,1,07,22,78,133,27,12,63,357,44,11,41,108,28,23,27,199,22,1*73,1701228144695
NMEA,$GLGSV,2,2,07,21,39,034,43,03,06,303,31,04,00,347,21,1*46,1701228144695
NMEA,$GAGSV,2,1,08,02,26,093,25,07,18,236,41,15,35,171,37,19,02,329,14,7*79,1701228144695
NMEA,$GAGSV,2,2,08,27,37,304,45,30,69,035,33,34,55,096,31,36,22,041,41,7*79,1701228144695
NMEA,$GAGSV,2,1,07,02,26,093,15,07,18,236,33,15,35,171,30,27,37,304,34,1*77,1701228144695
NMEA,$GAGSV,2,2,07,30,69,035,23,34,55,096,26,36,22,041,30,1*46,1701228144695
NMEA,$GBGSV,2,1,07,44,35,047,26,34,83,153,32,25,77,320,44,24,43,127,30,1*79,1701228144695
NMEA,$GBGSV,2,2,07,23,26,312,46,12,59,051,38,11,61,203,36,1*45,1701228144695
NMEA,$GBGSV,2,1,06,23,26,312,44,24,43,127,25,25,77,320,41,34,83,153,32,3*7F,1701228144695
NMEA,$GBGSV,2,2,06,43,36,216,26,44,35,047,28,3*7E,1701228144695
NMEA,$GBGSV,2,1,06,23,26,312,26,24,43,127,32,25,77,320,31,34,83,153,26,5*79,1701228144695
NMEA,$GBGSV,2,2,06,43,36,216,29,44,35,047,31,5*7F,1701228144695
NMEA,$GNGSA,A,3,06,11,12,13,14,15,17,19,22,24,,,0.7,0.5,0.6,1*3B,1701228144709
NMEA,$PSSGR,GSA,A,3,06,11,24,,,,,,,,,,0.7,0.5,0.6,1,8*41,1701228144709
NMEA,$GNGSA,A,3,67,75,76,85,86,87,,,,,,,0.7,0.5,0.6,2*38,1701228144709
NMEA,$GNGSA,A,3,02,07,30,34,36,,,,,,,,0.7,0.5,0.6,3*33,1701228144709
NMEA,$PSSGR,GSA,A,3,307,330,334,336,,,,,,,,,0.7,0.5,0.6,3,1*4C,1701228144709
NMEA,$GNGSA,A,3,11,12,23,24,25,34,43,44,,,,,0.7,0.5,0.6,4*33,1701228144709
NMEA,$PSSGR,GSA,A,3,223,224,225,234,243,244,,,,,,,0.7,0.5,0.6,4,5*49,1701228144709
NMEA,$GNVTG,,T,,M,0.0,N,0.0,K,A*3D,1701228144709
NMEA,$GNDTM,W84,,0000.000000,N,00000.000000,E,0.000,W84*41,1701228144709
NMEA,$GNRMC,032225.00,A,3725.651183,N,12209.427804,W,0.0,,291123,12.9,E,A,V*57,1701228144709
NMEA,$GNGNS,032225.00,3725.651183,N,12209.427804,W,AAAANN,29,0.5,13.4,-32.6,,,V*28,1701228144709
NMEA,$GNGGA,032225.00,3725.651183,N,12209.427804,W,1,12,0.5,13.4,M,-32.6,M,,*70,1701228144709
NMEA,$PSMSG,magcal=PASS,bluesky=0*00,1701228144714
NMEA,$GPGSV,3,1,12,06,50,141,34,11,26,175,27,12,24,296,32,13,12,205,30,1*6B,1701228145699
NMEA,$GPGSV,3,2,12,14,21,094,25,15,10,239,31,17,38,046,41,19,66,035,37,1*65,1701228145699
NMEA,$GPGSV,3,3,12,22,39,081,27,24,55,288,44,44,00,000,33,46,00,000,39,1*6D,1701228145699
NMEA,$GPGSV,1,1,04,06,50,141,25,11,26,175,25,14,21,094,16,24,55,288,30,8*62,1701228145699
NMEA,$GLGSV,2,1,07,22,78,133,28,12,63,357,44,11,41,108,24,23,27,199,21,1*73,1701228145699
NMEA,$GLGSV,2,2,07,21,39,034,43,03,06,303,30,04,00,347,21,1*47,1701228145699
NMEA,$GAGSV,2,1,08,02,26,093,26,07,18,236,42,15,35,171,36,19,02,329,14,7*78,1701228145699
NMEA,$GAGSV,2,2,08,27,37,304,45,30,69,035,33,34,55,096,31,36,22,041,41,7*79,1701228145699
NMEA,$GAGSV,2,1,07,02,26,093,15,07,18,236,30,15,35,171,27,27,37,304,33,1*75,1701228145699
NMEA,$GAGSV,2,2,07,30,69,035,23,34,55,096,26,36,22,041,30,1*46,1701228145699
NMEA,$GBGSV,2,1,06,34,83,153,35,25,77,320,44,24,43,127,24,23,26,312,47,1*7D,1701228145699
NMEA,$GBGSV,2,2,06,12,59,051,39,11,61,203,36,1*72,1701228145699
NMEA,$GBGSV,2,1,06,23,26,312,45,24,43,127,30,25,77,320,42,34,83,153,33,3*78,1701228145699
NMEA,$GBGSV,2,2,06,43,36,216,28,44,35,047,29,3*71,1701228145699
NMEA,$GBGSV,2,1,06,23,26,312,25,24,43,127,31,25,77,320,31,34,83,153,25,5*7A,1701228145699
NMEA,$GBGSV,2,2,06,43,36,216,29,44,35,047,31,5*7F,1701228145699
NMEA,$GNGSA,A,3,06,11,12,13,14,15,17,19,22,24,,,0.7,0.5,0.6,1*3B,1701228145711
NMEA,$PSSGR,GSA,A,3,06,11,24,,,,,,,,,,0.7,0.5,0.6,1,8*41,1701228145711
NMEA,$GNGSA,A,3,67,75,76,85,86,87,,,,,,,0.7,0.5,0.6,2*38,1701228145711
NMEA,$GNGSA,A,3,02,07,30,34,36,,,,,,,,0.7,0.5,0.6,3*33,1701228145711
NMEA,$PSSGR,GSA,A,3,307,330,334,336,,,,,,,,,0.7,0.5,0.6,3,1*4C,1701228145711
NMEA,$GNGSA,A,3,11,12,23,24,25,34,43,44,,,,,0.7,0.5,0.6,4*33,1701228145711
NMEA,$PSSGR,GSA,A,3,223,224,225,234,243,244,,,,,,,0.7,0.5,0.6,4,5*49,1701228145711
NMEA,$GNVTG,,T,,M,0.0,N,0.0,K,A*3D,1701228145711
NMEA,$GNDTM,W84,,0000.000000,N,00000.000000,E,0.000,W84*41,1701228145711
NMEA,$GNRMC,032226.00,A,3725.651184,N,12209.427801,W,0.0,,291123,12.9,E,A,V*56,1701228145711
NMEA,$GNGNS,032226.00,3725.651184,N,12209.427801,W,AAAANN,29,0.5,13.4,-32.6,,,V*29,1701228145711
NMEA,$GNGGA,032226.00,3725.651184,N,12209.427801,W,1,12,0.5,13.4,M,-32.6,M,,*71,1701228145711
NMEA,$PSMSG,magcal=PASS,bluesky=0*00,1701228145716
NMEA,$GPGSV,3,1,12,06,50,141,34,11,26,175,24,12,24,296,33,13,12,205,28,1*60,1701228146694
NMEA,$GPGSV,3,2,12,14,21,094,25,15,10,239,26,17,38,046,42,19,66,035,36,1*61,1701228146694
NMEA,$GPGSV,3,3,12,22,39,081,31,24,55,288,46,44,00,000,33,46,00,000,42,1*64,1701228146694
NMEA,$GPGSV,1,1,04,06,50,141,22,11,26,175,25,14,21,094,16,24,55,288,28,8*6C,1701228146694
NMEA,$GLGSV,2,1,07,22,78,133,32,12,63,357,41,11,41,108,28,23,27,199,29,1*79,1701228146694
NMEA,$GLGSV,2,2,07,21,39,034,43,03,06,303,29,04,00,347,21,1*4F,1701228146694
NMEA,$GAGSV,2,1,08,02,26,093,26,07,18,236,42,15,35,171,35,19,02,329,14,7*7B,1701228146694
NMEA,$GAGSV,2,2,08,27,37,304,45,30,69,035,32,34,55,096,30,36,22,041,39,7*76,1701228146694
NMEA,$GAGSV,2,1,07,02,26,093,15,07,18,236,28,15,35,171,24,27,37,304,33,1*7F,1701228146694
NMEA,$GAGSV,2,2,07,30,69,035,23,34,55,096,23,36,22,041,29,1*4B,1701228146694
NMEA,$GBGSV,2,1,07,43,36,216,25,34,83,153,37,25,77,320,42,24,43,127,29,1*73,1701228146694
NMEA,$GBGSV,2,2,07,23,26,312,46,12,59,051,39,11,61,203,37,1*45,1701228146694
NMEA,$GBGSV,2,1,06,23,26,312,45,24,43,127,34,25,77,320,40,34,83,153,33,3*7E,1701228146694
NMEA,$GBGSV,2,2,06,43,36,216,26,44,35,047,29,3*7F,1701228146694
NMEA,$GBGSV,2,1,06,23,26,312,25,24,43,127,30,25,77,320,30,34,83,153,22,5*7D,1701228146694
NMEA,$GBGSV,2,2,06,43,36,216,28,44,35,047,30,5*7F,1701228146694
NMEA,$GNGSA,A,3,06,11,12,13,14,15,17,19,22,24,,,0.7,0.5,0.6,1*3B,1701228146710
NMEA,$PSSGR,GSA,A,3,06,11,24,,,,,,,,,,0.7,0.5,0.6,1,8*41,1701228146710
NMEA,$GNGSA,A,3,67,75,76,85,86,87,,,,,,,0.7,0.5,0.6,2*38,1701228146710
NMEA,$GNGSA,A,3,02,07,30,34,36,,,,,,,,0.7,0.5,0.6,3*33,1701228146710
NMEA,$PSSGR,GSA,A,3,307,330,334,336,,,,,,,,,0.7,0.5,0.6,3,1*4C,1701228146710
NMEA,$GNGSA,A,3,11,12,23,24,25,34,43,44,,,,,0.7,0.5,0.6,4*33,1701228146710
NMEA,$PSSGR,GSA,A,3,223,224,225,234,243,244,,,,,,,0.7,0.5,0.6,4,5*49,1701228146710
NMEA,$GNVTG,,T,,M,0.0,N,0.0,K,A*3D,1701228146710
NMEA,$GNDTM,W84,,0000.000000,N,00000.000000,E,0.000,W84*41,1701228146710
NMEA,$GNRMC,032227.00,A,3725.651186,N,12209.427800,W,0.0,,291123,12.9,E,A,V*54,1701228146710
NMEA,$GNGNS,032227.00,3725.651186,N,12209.427800,W,AAAANN,29,0.5,13.4,-32.6,,,V*2B,1701228146710
NMEA,$GNGGA,032227.00,3725.651186,N,12209.427800,W,1,12,0.5,13.4,M,-32.6,M,,*73,1701228146710
NMEA,$PSMSG,magcal=PASS,bluesky=0*00,1701228146717
NMEA,$GPGSV,3,1,12,06,50,141,33,11,26,175,25,12,24,296,32,13,12,205,28,1*67,1701228147700
NMEA,$GPGSV,3,2,12,14,21,094,23,15,10,239,26,17,38,046,42,19,66,035,35,1*64,1701228147700
NMEA,$GPGSV,3,3,12,22,39,081,31,24,55,288,45,44,00,000,33,46,00,000,42,1*67,1701228147700
NMEA,$GPGSV,1,1,03,06,50,141,23,11,26,175,25,24,55,288,32,8*5D,1701228147700
NMEA,$GLGSV,2,1,07,22,78,133,32,12,63,357,42,11,41,108,28,23,27,199,29,1*7A,1701228147700
NMEA,$GLGSV,2,2,07,21,39,034,43,03,06,303,28,04,00,347,21,1*4E,1701228147700
NMEA,$GAGSV,2,1,08,02,26,093,22,07,18,236,42,15,35,171,35,19,02,329,14,7*7F,1701228147700
NMEA,$GAGSV,2,2,08,27,37,304,45,30,69,035,33,34,55,096,30,36,22,041,39,7*77,1701228147700
NMEA,$GAGSV,2,1,07,02,26,093,17,07,18,236,29,15,35,171,26,27,37,304,33,1*7E,1701228147700
NMEA,$GAGSV,2,2,07,30,69,035,23,34,55,096,23,36,22,041,29,1*4B,1701228147700
NMEA,$GBGSV,2,1,07,43,36,216,25,34,83,153,37,25,77,320,43,24,43,127,28,1*73,1701228147700
NMEA,$GBGSV,2,2,07,23,26,312,46,12,59,051,39,11,61,203,37,1*45,1701228147700
NMEA,$GBGSV,2,1,06,23,26,312,44,24,43,127,33,25,77,320,41,34,83,153,34,3*7E,1701228147700
NMEA,$GBGSV,2,2,06,43,36,216,27,44,35,047,31,3*77,1701228147700
NMEA,$GBGSV,2,1,06,23,26,312,22,24,43,127,31,25,77,320,30,34,83,153,24,5*7D,1701228147700
NMEA,$GBGSV,2,2,06,43,36,216,29,44,35,047,30,5*7E,1701228147700
NMEA,$GNGSA,A,3,06,11,12,13,15,17,19,22,24,,,,0.7,0.5,0.6,1*3E,1701228147713
NMEA,$PSSGR,GSA,A,3,06,11,24,,,,,,,,,,0.7,0.5,0.6,1,8*41,1701228147713
NMEA,$GNGSA,A,3,67,75,76,85,86,87,,,,,,,0.7,0.5,0.6,2*38,1701228147713
NMEA,$GNGSA,A,3,02,07,30,34,36,,,,,,,,0.7,0.5,0.6,3*33,1701228147713
NMEA,$PSSGR,GSA,A,3,307,330,334,336,,,,,,,,,0.7,0.5,0.6,3,1*4C,1701228147713
NMEA,$GNGSA,A,3,11,12,23,24,25,34,43,44,,,,,0.7,0.5,0.6,4*33,1701228147713
NMEA,$PSSGR,GSA,A,3,223,224,225,234,244,,,,,,,,0.7,0.5,0.6,4,5*7C,1701228147713
NMEA,$GNVTG,,T,,M,0.0,N,0.0,K,A*3D,1701228147713
NMEA,$GNDTM,W84,,0000.000000,N,00000.000000,E,0.000,W84*41,1701228147713
NMEA,$GNRMC,032228.00,A,3725.651187,N,12209.427799,W,0.0,,291123,12.9,E,A,V*55,1701228147713
NMEA,$GNGNS,032228.00,3725.651187,N,12209.427799,W,AAAANN,28,0.5,13.4,-32.6,,,V*2B,1701228147713
NMEA,$GNGGA,032228.00,3725.651187,N,12209.427799,W,1,12,0.5,13.4,M,-32.6,M,,*72,1701228147713
NMEA,$PSMSG,magcal=PASS,bluesky=0*00,1701228147718
NMEA,$GPGSV,3,1,11,06,50,141,34,11,26,175,26,12,24,296,32,14,21,094,26,1*63,1701228148693
NMEA,$GPGSV,3,2,11,15,10,239,24,17,38,046,41,19,66,035,36,22,39,081,31,1*6E,1701228148693
NMEA,$GPGSV,3,3,11,24,55,288,46,44,00,000,33,46,00,000,41,1*55,1701228148693
NMEA,$GPGSV,1,1,03,06,50,141,25,11,26,175,25,24,55,288,31,8*58,1701228148693
NMEA,$GLGSV,2,1,07,22,78,133,33,12,63,357,42,11,41,108,21,23,27,199,30,1*7A,1701228148693
NMEA,$GLGSV,2,2,07,21,39,034,43,03,06,303,29,04,00,347,21,1*4F,1701228148693
NMEA,$GAGSV,2,1,08,02,26,093,25,07,18,236,43,15,35,171,35,19,02,329,14,7*79,1701228148693
NMEA,$GAGSV,2,2,08,27,37,304,45,30,69,035,34,34,55,096,32,36,22,041,40,7*7C,1701228148693
NMEA,$GAGSV,2,1,07,02,26,093,17,07,18,236,29,15,35,171,26,27,37,304,34,1*79,1701228148693
NMEA,$GAGSV,2,2,07,30,69,035,23,34,55,096,25,36,22,041,30,1*45,1701228148693
NMEA,$GBGSV,2,1,08,44,35,047,21,43,36,216,25,34,83,153,37,25,77,320,43,1*75,1701228148693
NMEA,$GBGSV,2,2,08,24,43,127,30,23,26,312,46,12,59,051,40,11,61,203,38,1*7D,1701228148693
NMEA,$GBGSV,2,1,06,23,26,312,45,24,43,127,34,25,77,320,41,34,83,153,34,3*78,1701228148693
NMEA,$GBGSV,2,2,06,43,36,216,27,44,35,047,32,3*74,1701228148693
NMEA,$GBGSV,2,1,06,23,26,312,22,24,43,127,31,25,77,320,30,34,83,153,22,5*7B,1701228148693
NMEA,$GBGSV,2,2,06,43,36,216,28,44,35,047,31,5*7E,1701228148693
NMEA,$GNGSA,A,3,06,11,12,13,14,15,17,19,22,24,,,0.7,0.4,0.6,1*3A,1701228148707
NMEA,$PSSGR,GSA,A,3,06,11,24,,,,,,,,,,0.7,0.4,0.6,1,8*40,1701228148707
NMEA,$GNGSA,A,3,67,75,76,85,86,87,,,,,,,0.7,0.4,0.6,2*39,1701228148707
NMEA,$GNGSA,A,3,02,07,30,34,36,,,,,,,,0.7,0.4,0.6,3*32,1701228148707
NMEA,$PSSGR,GSA,A,3,307,330,334,336,,,,,,,,,0.7,0.4,0.6,3,1*4D,1701228148707
NMEA,$GNGSA,A,3,11,12,23,24,25,34,43,44,,,,,0.7,0.4,0.6,4*32,1701228148707
NMEA,$PSSGR,GSA,A,3,223,224,225,234,244,,,,,,,,0.7,0.4,0.6,4,5*7D,1701228148707
NMEA,$GNVTG,,T,,M,0.0,N,0.0,K,A*3D,1701228148707
NMEA,$GNDTM,W84,,0000.000000,N,00000.000000,E,0.000,W84*41,1701228148707
NMEA,$GNRMC,032229.00,A,3725.651189,N,12209.427798,W,0.0,,291123,12.9,E,A,V*5B,1701228148707
NMEA,$GNGNS,032229.00,3725.651189,N,12209.427798,W,AAAANN,29,0.4,13.4,-32.6,,,V*25,1701228148707
NMEA,$GNGGA,032229.00,3725.651189,N,12209.427798,W,1,12,0.4,13.4,M,-32.6,M,,*7D,1701228148707
NMEA,$PSMSG,magcal=PASS,bluesky=0*00,1701228148712
NMEA,$GPGSV,3,1,11,06,50,141,33,11,26,175,24,12,24,296,36,14,21,094,24,1*60,1701228149698
NMEA,$GPGSV,3,2,11,15,10,239,33,17,38,046,41,19,66,035,35,22,39,081,32,1*68,1701228149698
NMEA,$GPGSV,3,3,11,24,55,288,46,44,00,000,33,46,00,000,43,1*57,1701228149698
NMEA,$GPGSV,1,1,03,06,50,141,25,11,26,175,26,24,55,288,30,8*5A,1701228149698
NMEA,$GLGSV,2,1,07,22,78,133,34,12,63,357,42,11,41,108,26,23,27,199,32,1*78,1701228149698
NMEA,$GLGSV,2,2,07,21,39,034,43,03,06,303,27,04,00,347,21,1*41,1701228149698
NMEA,$GAGSV,2,1,07,02,26,093,21,07,18,236,42,15,35,171,35,27,37,304,44,7*72,1701228149698
NMEA,$GAGSV,2,2,07,30,69,035,33,34,55,096,32,36,22,041,40,7*43,1701228149698
NMEA,$GAGSV,2,1,07,02,26,093,17,07,18,236,29,15,35,171,25,27,37,304,34,1*7A,1701228149698
NMEA,$GAGSV,2,2,07,30,69,035,23,34,55,096,25,36,22,041,30,1*45,1701228149698
NMEA,$GBGSV,2,1,08,44,35,047,32,43,36,216,27,34,83,153,38,25,77,320,43,1*7A,1701228149698
NMEA,$GBGSV,2,2,08,24,43,127,34,23,26,312,47,12,59,051,39,11,61,203,38,1*76,1701228149698
NMEA,$GBGSV,2,1,06,23,26,312,45,24,43,127,34,25,77,320,41,34,83,153,34,3*78,1701228149698
NMEA,$GBGSV,2,2,06,43,36,216,26,44,35,047,33,3*74,1701228149698
NMEA,$GBGSV,2,1,06,23,26,312,22,24,43,127,31,25,77,320,30,34,83,153,23,5*7A,1701228149698
NMEA,$GBGSV,2,2,06,43,36,216,30,44,35,047,32,5*74,1701228149698
NMEA,$GNGSA,A,3,06,11,12,13,14,15,17,19,22,24,,,0.7,0.4,0.5,1*39,1701228149717
NMEA,$PSSGR,GSA,A,3,06,11,24,,,,,,,,,,0.7,0.4,0.5,1,8*43,1701228149717
NMEA,$GNGSA,A,3,67,75,76,85,86,87,,,,,,,0.7,0.4,0.5,2*3A,1701228149717
NMEA,$GNGSA,A,3,02,07,30,34,36,,,,,,,,0.7,0.4,0.5,3*31,1701228149717
NMEA,$PSSGR,GSA,A,3,307,330,334,336,,,,,,,,,0.7,0.4,0.5,3,1*4E,1701228149717
NMEA,$GNGSA,A,3,11,12,23,24,25,34,43,44,,,,,0.7,0.4,0.5,4*31,1701228149717
NMEA,$PSSGR,GSA,A,3,223,224,225,234,244,,,,,,,,0.7,0.4,0.5,4,5*7E,1701228149717
NMEA,$GNVTG,,T,,M,0.0,N,0.0,K,A*3D,1701228149717
NMEA,$GNDTM,W84,,0000.000000,N,00000.000000,E,0.000,W84*41,1701228149717
NMEA,$GNRMC,032230.00,A,3725.651192,N,12209.427795,W,0.0,,291123,12.9,E,A,V*54,1701228149717
NMEA,$GNGNS,032230.00,3725.651192,N,12209.427795,W,AAAANN,29,0.4,13.4,-32.6,,,V*2A,1701228149717
NMEA,$GNGGA,032230.00,3725.651192,N,12209.427795,W,1,12,0.4,13.4,M,-32.6,M,,*72,1701228149717
NMEA,$PSMSG,magcal=PASS,bluesky=0*00,1701228149734
NMEA,$GPGSV,3,1,12,06,50,141,39,11,26,175,27,12,24,296,45,13,12,205,31,1*67,1701228150709
NMEA,$GPGSV,3,2,12,14,21,094,26,15,10,239,43,17,38,046,38,19,65,035,40,1*6E,1701228150709
NMEA,$GPGSV,3,3,12,22,39,081,32,24,55,288,41,44,00,000,44,46,00,000,44,1*66,1701228150709
NMEA,$GPGSV,1,1,03,06,50,141,29,11,26,175,26,24,55,288,36,8*50,1701228150709
NMEA,$GLGSV,2,1,07,22,78,133,37,12,63,357,40,11,41,108,38,23,27,199,37,1*73,1701228150709
NMEA,$GLGSV,2,2,07,21,39,034,41,03,06,303,26,04,00,347,17,1*47,1701228150709
NMEA,$GAGSV,2,1,07,02,26,093,23,07,18,236,38,15,35,171,35,27,37,304,45,7*7C,1701228150709
NMEA,$GAGSV,2,2,07,30,69,035,38,34,55,096,30,36,22,041,35,7*48,1701228150709
NMEA,$GAGSV,2,1,07,02,26,093,20,07,18,236,23,15,35,171,25,27,37,304,34,1*74,1701228150709
NMEA,$GAGSV,2,2,07,30,69,035,23,34,55,096,23,36,22,041,24,1*46,1701228150709
NMEA,$GBGSV,2,1,08,44,35,047,38,43,36,216,37,34,83,153,40,25,77,320,43,1*7E,1701228150709
NMEA,$GBGSV,2,2,08,24,43,127,37,23,26,312,43,12,59,051,38,11,61,203,42,1*7D,1701228150709
NMEA,$GBGSV,2,1,06,23,26,312,43,24,43,127,35,25,77,320,42,34,83,153,37,3*7F,1701228150709
NMEA,$GBGSV,2,2,06,43,36,216,36,44,35,047,37,3*71,1701228150709
NMEA,$GBGSV,2,1,06,23,26,312,34,24,43,127,31,25,77,320,30,34,83,153,27,5*79,1701228150709
NMEA,$GBGSV,2,2,06,43,36,216,26,44,35,047,22,5*72,1701228150709
NMEA,$GNGSA,A,3,06,11,12,13,14,15,17,19,22,24,,,0.7,0.4,0.6,1*3A,1701228150738
NMEA,$PSSGR,GSA,A,3,06,11,24,,,,,,,,,,0.7,0.4,0.6,1,8*40,1701228150738
NMEA,$GNGSA,A,3,67,75,76,85,86,87,,,,,,,0.7,0.4,0.6,2*39,1701228150738
NMEA,$GNGSA,A,3,02,07,30,34,36,,,,,,,,0.7,0.4,0.6,3*32,1701228150738
NMEA,$PSSGR,GSA,A,3,307,334,336,,,,,,,,,,0.7,0.4,0.6,3,1*7D,1701228150738
NMEA,$GNGSA,A,3,11,12,23,24,25,34,43,44,,,,,0.7,0.4,0.6,4*32,1701228150738
NMEA,$PSSGR,GSA,A,3,223,224,225,234,243,244,,,,,,,0.7,0.4,0.6,4,5*48,1701228150738
NMEA,$GNVTG,299.5,T,286.6,M,0.9,N,1.7,K,A*3F,1701228150738
NMEA,$GNDTM,W84,,0000.000000,N,00000.000000,E,0.000,W84*41,1701228150738
NMEA,$GNRMC,032231.00,A,3725.651397,N,12209.427984,W,0.9,299.5,291123,12.9,E,A,V*7C,1701228150738
NMEA,$GNGNS,032231.00,3725.651397,N,12209.427984,W,AAAANN,29,0.4,13.2,-32.6,,,V*24,1701228150738
NMEA,$GNGGA,032231.00,3725.651397,N,12209.427984,W,1,12,0.4,13.2,M,-32.6,M,,*7C,1701228150738
NMEA,$PSMSG,magcal=PASS,bluesky=0*00,1701228150750
NMEA,$GPGSV,3,1,11,06,50,141,35,11,26,175,28,12,24,296,45,14,21,094,23,1*69,1701228151694
NMEA,$GPGSV,3,2,11,15,10,239,43,17,38,046,38,19,65,035,36,22,39,081,33,1*60,1701228151694
NMEA,$GPGSV,3,3,11,24,55,288,41,44,00,000,42,46,00,000,41,1*54,1701228151694
NMEA,$GPGSV,1,1,03,06,50,141,28,11,26,175,26,24,55,288,34,8*53,1701228151694
NMEA,$GLGSV,2,1,07,22,78,133,37,12,63,357,39,11,41,108,29,23,27,199,43,1*7E,1701228151694
NMEA,$GLGSV,2,2,07,21,39,034,39,03,06,303,30,04,00,347,24,1*4F,1701228151694
NMEA,$GAGSV,2,1,07,02,26,093,23,07,18,236,35,15,35,171,35,27,37,304,44,7*70,1701228151694
NMEA,$GAGSV,2,2,07,30,69,035,41,34,55,096,31,36,22,041,35,7*47,1701228151694
NMEA,$GAGSV,2,1,07,02,26,093,22,07,18,236,24,15,35,171,23,27,37,304,32,1*71,1701228151694
NMEA,$GAGSV,2,2,07,30,69,035,28,34,55,096,22,36,22,041,26,1*4E,1701228151694
NMEA,$GBGSV,2,1,08,44,35,047,37,43,36,216,41,34,83,153,42,25,77,320,38,1*7E,1701228151694
NMEA,$GBGSV,2,2,08,24,43,127,31,23,26,312,39,12,59,051,38,11,61,203,42,1*76,1701228151694
NMEA,$GBGSV,2,1,06,23,26,312,39,24,43,127,27,25,77,320,39,34,83,153,40,3*7D,1701228151694
NMEA,$GBGSV,2,2,06,43,36,216,39,44,35,047,36,3*7F,1701228151694
NMEA,$GBGSV,2,1,06,23,26,312,39,24,43,127,22,25,77,320,30,34,83,153,30,5*70,1701228151694
NMEA,$GBGSV,2,2,06,43,36,216,25,44,35,047,26,5*75,1701228151694
NMEA,$GNGSA,A,3,06,11,12,13,14,15,17,19,22,24,,,0.7,0.4,0.5,1*39,1701228151713
NMEA,$PSSGR,GSA,A,3,06,11,24,,,,,,,,,,0.7,0.4,0.5,1,8*43,1701228151713
NMEA,$GNGSA,A,3,67,75,76,85,86,87,,,,,,,0.7,0.4,0.5,2*3A,1701228151713
NMEA,$GNGSA,A,3,02,07,30,34,36,,,,,,,,0.7,0.4,0.5,3*31,1701228151713
NMEA,$PSSGR,GSA,A,3,302,307,330,334,336,,,,,,,,0.7,0.4,0.5,3,1*7F,1701228151713
NMEA,$GNGSA,A,3,11,12,23,24,25,34,43,44,,,,,0.7,0.4,0.5,4*31,1701228151713
NMEA,$PSSGR,GSA,A,3,223,224,225,234,243,244,,,,,,,0.7,0.4,0.5,4,5*4B,1701228151713
NMEA,$GNVTG,322.7,T,309.8,M,1.2,N,2.3,K,A*39,1701228151713
NMEA,$GNDTM,W84,,0000.000000,N,00000.000000,E,0.000,W84*41,1701228151713
NMEA,$GNRMC,032232.00,A,3725.651804,N,12209.428186,W,1.2,322.7,291123,12.9,E,A,V*72,1701228151713
NMEA,$GNGNS,032232.00,3725.651804,N,12209.428186,W,AAAANN,29,0.4,12.9,-32.6,,,V*29,1701228151713
NMEA,$GNGGA,032232.00,3725.651804,N,12209.428186,W,1,12,0.4,12.9,M,-32.6,M,,*71,1701228151713
NMEA,$PSMSG,magcal=PASS,bluesky=0*00,1701228151729
NMEA,$GPGSV,3,1,11,06,50,141,37,11,26,175,29,12,24,296,44,14,21,094,28,1*60,1701228152698
NMEA,$GPGSV,3,2,11,15,10,239,43,17,38,046,38,19,65,035,35,22,39,081,29,1*68,1701228152698
NMEA,$GPGSV,3,3,11,24,55,288,44,44,00,000,42,46,00,000,40,1*50,1701228152698
NMEA,$GPGSV,1,1,03,06,50,141,26,11,26,175,26,24,55,288,34,8*5D,1701228152698
NMEA,$GLGSV,2,1,07,22,78,133,38,12,63,357,42,11,41,108,33,23,27,199,42,1*77,1701228152698
NMEA,$GLGSV,2,2,07,21,39,034,38,03,06,303,34,04,00,347,24,1*4A,1701228152698
NMEA,$GAGSV,2,1,07,02,26,093,23,07,18,236,36,15,35,171,34,27,37,304,44,7*72,1701228152698
NMEA,$GAGSV,2,2,07,30,69,035,37,34,55,096,35,36,22,041,34,7*43,1701228152698
NMEA,$GAGSV,2,1,07,02,26,093,22,07,18,236,27,15,35,171,23,27,37,304,31,1*71,1701228152698
NMEA,$GAGSV,2,2,07,30,69,035,29,34,55,096,24,36,22,041,22,1*4D,1701228152698
NMEA,$GBGSV,2,1,08,44,35,047,36,43,36,216,42,34,83,153,41,25,77,320,38,1*7F,1701228152698
NMEA,$GBGSV,2,2,08,24,43,127,31,23,26,312,35,12,59,051,40,11,61,203,41,1*76,1701228152698
NMEA,$GBGSV,2,1,06,23,26,312,39,24,43,127,27,25,77,320,37,34,83,153,40,3*73,1701228152698
NMEA,$GBGSV,2,2,06,43,36,216,41,44,35,047,34,3*72,1701228152698
NMEA,$GBGSV,2,1,06,23,26,312,36,24,43,127,22,25,77,320,30,34,83,153,25,5*7B,1701228152698
NMEA,$GBGSV,2,2,06,43,36,216,23,44,35,047,24,5*71,1701228152698
NMEA,$GNGSA,A,3,06,11,12,13,14,15,17,19,22,24,,,0.7,0.4,0.5,1*39,1701228152712
NMEA,$PSSGR,GSA,A,3,06,11,24,,,,,,,,,,0.7,0.4,0.5,1,8*43,1701228152712
NMEA,$GNGSA,A,3,67,75,76,85,86,87,,,,,,,0.7,0.4,0.5,2*3A,1701228152712
NMEA,$GNGSA,A,3,02,07,30,34,36,,,,,,,,0.7,0.4,0.5,3*31,1701228152712
NMEA,$PSSGR,GSA,A,3,302,307,330,334,336,,,,,,,,0.7,0.4,0.5,3,1*7F,1701228152712
NMEA,$GNGSA,A,3,11,12,23,24,25,34,43,44,,,,,0.7,0.4,0.5,4*31,1701228152712
NMEA,$PSSGR,GSA,A,3,223,224,225,234,243,244,,,,,,,0.7,0.4,0.5,4,5*4B,1701228152712
NMEA,$GNVTG,333.8,T,320.9,M,1.5,N,2.7,K,A*3F,1701228152712
NMEA,$GNDTM,W84,,0000.000000,N,00000.000000,E,0.000,W84*41,1701228152712
NMEA,$GNRMC,032233.00,A,3725.652334,N,12209.428361,W,1.5,333.8,291123,12.9,E,A,V*7B,1701228152712
NMEA,$GNGNS,032233.00,3725.652334,N,12209.428361,W,AAAANN,29,0.4,12.6,-32.6,,,V*27,1701228152712
NMEA,$GNGGA,032233.00,3725.652334,N,12209.428361,W,1,12,0.4,12.6,M,-32.6,M,,*7F,1701228152712
NMEA,$PSMSG,magcal=PASS,bluesky=0*00,1701228152720
NMEA,$GPGSV,3,1,11,06,50,141,36,11,26,175,30,12,24,296,46,14,21,094,23,1*60,1701228153698
NMEA,$GPGSV,3,2,11,15,10,239,43,17,38,046,38,19,65,035,38,22,39,081,32,1*6F,1701228153698
NMEA,$GPGSV,3,3,11,24,55,288,43,44,00,000,41,46,00,000,39,1*5A,1701228153698
NMEA,$GPGSV,1,1,03,06,50,141,26,11,26,175,26,24,55,288,34,8*5D,1701228153698
NMEA,$GLGSV,2,1,07,22,78,133,38,12,63,357,41,11,41,108,32,23,27,199,41,1*76,1701228153698
NMEA,$GLGSV,2,2,07,21,39,034,43,03,06,303,30,04,00,347,24,1*42,1701228153698
NMEA,$GAGSV,2,1,07,02,26,093,27,07,18,236,33,15,35,171,30,27,37,304,42,7*71,1701228153698
NMEA,$GAGSV,2,2,07,30,69,035,38,34,55,096,35,36,22,041,34,7*4C,1701228153698
NMEA,$GAGSV,2,1,07,02,26,093,22,07,18,236,30,15,35,171,20,27,37,304,29,1*7D,1701228153698
NMEA,$GAGSV,2,2,07,30,69,035,30,34,55,096,24,36,22,041,26,1*41,1701228153698
NMEA,$GBGSV,2,1,08,44,35,047,37,43,36,216,43,34,83,153,39,25,77,320,40,1*7F,1701228153698
NMEA,$GBGSV,2,2,08,24,43,127,27,23,26,312,35,12,59,051,41,11,61,203,38,1*7E,1701228153698
NMEA,$GBGSV,2,1,06,23,26,312,34,24,43,127,27,25,77,320,37,34,83,153,40,3*7E,1701228153698
NMEA,$GBGSV,2,2,06,43,36,216,42,44,35,047,37,3*72,1701228153698
NMEA,$GBGSV,2,1,06,23,26,312,37,24,43,127,22,25,77,320,32,34,83,153,23,5*7E,1701228153698
NMEA,$GBGSV,2,2,06,43,36,216,24,44,35,047,24,5*76,1701228153698
NMEA,$GNGSA,A,3,06,11,12,13,14,15,17,19,22,24,,,0.7,0.4,0.5,1*39,1701228153708
NMEA,$PSSGR,GSA,A,3,06,11,24,,,,,,,,,,0.7,0.4,0.5,1,8*43,1701228153708
NMEA,$GNGSA,A,3,67,75,76,85,86,87,,,,,,,0.7,0.4,0.5,2*3A,1701228153708
NMEA,$GNGSA,A,3,02,07,30,34,36,,,,,,,,0.7,0.4,0.5,3*31,1701228153708
NMEA,$PSSGR,GSA,A,3,302,307,330,334,336,,,,,,,,0.7,0.4,0.5,3,1*7F,1701228153708
NMEA,$GNGSA,A,3,11,12,23,24,25,34,43,44,,,,,0.7,0.4,0.5,4*31,1701228153708
NMEA,$PSSGR,GSA,A,3,223,224,225,234,243,244,,,,,,,0.7,0.4,0.5,4,5*4B,1701228153708
NMEA,$GNVTG,340.6,T,327.7,M,1.4,N,2.6,K,A*3C,1701228153708
NMEA,$GNDTM,W84,,0000.000000,N,00000.000000,E,0.000,W84*41,1701228153708
NMEA,$GNRMC,032234.00,A,3725.652864,N,12209.428458,W,1.4,340.6,291123,12.9,E,A,V*74,1701228153708
NMEA,$GNGNS,032234.00,3725.652864,N,12209.428458,W,AAAANN,29,0.4,12.5,-32.6,,,V*20,1701228153708
NMEA,$GNGGA,032234.00,3725.652864,N,12209.428458,W,1,12,0.4,12.5,M,-32.6,M,,*78,1701228153708
NMEA,$PSMSG,magcal=PASS,bluesky=0*00,1701228153715
NMEA,$GPGSV,3,1,11,06,50,141,35,11,26,175,27,12,24,296,45,14,21,094,26,1*63,1701228154696
NMEA,$GPGSV,3,2,11,15,10,239,43,17,38,046,39,19,65,035,39,22,39,081,29,1*65,1701228154696
NMEA,$GPGSV,3,3,11,24,55,288,41,44,00,000,39,46,00,000,38,1*56,1701228154696
NMEA,$GPGSV,1,1,03,06,50,141,20,11,26,175,17,24,55,288,32,8*5F,1701228154696
NMEA,$GLGSV,2,1,07,22,78,133,35,12,63,357,41,11,41,108,30,23,27,199,37,1*78,1701228154696
NMEA,$GLGSV,2,2,07,21,39,034,40,03,06,303,30,04,00,347,24,1*41,1701228154696
NMEA,$GAGSV,2,1,07,02,26,093,26,07,18,236,36,15,35,171,29,27,37,304,37,7*7F,1701228154696
NMEA,$GAGSV,2,2,07,30,69,035,40,34,55,096,37,36,22,041,36,7*43,1701228154696
NMEA,$GAGSV,2,1,07,02,26,093,21,07,18,236,31,15,35,171,24,27,37,304,27,1*75,1701228154696
NMEA,$GAGSV,2,2,07,30,69,035,33,34,55,096,24,36,22,041,26,1*42,1701228154696
NMEA,$GBGSV,2,1,08,44,35,047,40,43,36,216,42,34,83,153,35,25,77,320,43,1*71,1701228154696
NMEA,$GBGSV,2,2,08,24,43,127,33,23,26,312,39,12,59,051,38,11,61,203,38,1*79,1701228154696
NMEA,$GBGSV,2,1,06,23,26,312,34,24,43,127,32,25,77,320,43,34,83,153,34,3*7A,1701228154696
NMEA,$GBGSV,2,2,06,43,36,216,40,44,35,047,37,3*70,1701228154696
NMEA,$GBGSV,2,1,06,23,26,312,38,24,43,127,22,25,77,320,33,34,83,153,24,5*77,1701228154696
NMEA,$GBGSV,2,2,06,43,36,216,31,44,35,047,24,5*72,1701228154696
NMEA,$GNGSA,A,3,06,11,12,13,14,15,17,19,22,24,,,0.7,0.4,0.5,1*39,1701228154709
NMEA,$PSSGR,GSA,A,3,06,11,24,,,,,,,,,,0.7,0.4,0.5,1,8*43,1701228154709
NMEA,$GNGSA,A,3,67,75,76,85,86,87,,,,,,,0.7,0.4,0.5,2*3A,1701228154709
NMEA,$GNGSA,A,3,02,07,30,34,36,,,,,,,,0.7,0.4,0.5,3*31,1701228154709
NMEA,$PSSGR,GSA,A,3,302,307,330,334,336,,,,,,,,0.7,0.4,0.5,3,1*7F,1701228154709
NMEA,$GNGSA,A,3,11,12,23,24,25,34,43,44,,,,,0.7,0.4,0.5,4*31,1701228154709
NMEA,$PSSGR,GSA,A,3,223,224,225,234,243,244,,,,,,,0.7,0.4,0.5,4,5*4B,1701228154709
NMEA,$GNVTG,352.0,T,339.1,M,1.5,N,2.8,K,A*3F,1701228154709
NMEA,$GNDTM,W84,,0000.000000,N,00000.000000,E,0.000,W84*41,1701228154709
NMEA,$GNRMC,032235.00,A,3725.653467,N,12209.428453,W,1.5,352.0,291123,12.9,E,A,V*74,1701228154709
NMEA,$GNGNS,032235.00,3725.653467,N,12209.428453,W,AAAANN,29,0.4,12.4,-32.6,,,V*25,1701228154709
NMEA,$GNGGA,032235.00,3725.653467,N,12209.428453,W,1,12,0.4,12.4,M,-32.6,M,,*7D,1701228154709
NMEA,$PSMSG,magcal=PASS,bluesky=0*00,1701228154715
NMEA,$GPGSV,3,1,11,06,50,141,39,11,26,175,30,12,24,296,45,14,21,094,26,1*69,1701228155704
NMEA,$GPGSV,3,2,11,15,10,239,43,17,38,046,45,19,65,035,39,22,39,081,37,1*61,1701228155704
NMEA,$GPGSV,3,3,11,24,55,288,46,44,00,000,38,46,00,000,37,1*5F,1701228155704
NMEA,$GPGSV,1,1,03,06,50,141,27,11,26,175,17,24,55,288,25,8*5E,1701228155704
NMEA,$GLGSV,2,1,07,22,78,133,36,12,63,357,42,11,41,108,32,23,27,199,28,1*74,1701228155704
NMEA,$GLGSV,2,2,07,21,39,034,39,03,06,303,30,04,00,347,18,1*40,1701228155704
NMEA,$GAGSV,2,1,07,02,26,093,27,07,18,236,34,15,35,171,34,27,37,304,39,7*7E,1701228155704
NMEA,$GAGSV,2,2,07,30,69,035,37,34,55,096,39,36,22,041,41,7*4D,1701228155704
NMEA,$GAGSV,2,1,07,02,26,093,21,07,18,236,23,15,35,171,24,27,37,304,28,1*79,1701228155704
NMEA,$GAGSV,2,2,07,30,69,035,31,34,55,096,25,36,22,041,33,1*45,1701228155704
NMEA,$GBGSV,2,1,08,44,35,047,43,43,36,216,32,34,83,153,35,25,77,320,44,1*72,1701228155704
NMEA,$GBGSV,2,2,08,24,43,127,37,23,26,312,33,12,59,051,39,11,61,203,39,1*77,1701228155704
NMEA,$GBGSV,2,1,06,23,26,312,34,24,43,127,35,25,77,320,43,34,83,153,35,3*7C,1701228155704
NMEA,$GBGSV,2,2,06,43,36,216,33,44,35,047,41,3*75,1701228155704
NMEA,$GBGSV,2,1,06,23,26,312,33,24,43,127,22,25,77,320,27,34,83,153,24,5*79,1701228155704
NMEA,$GBGSV,2,2,06,43,36,216,24,44,35,047,28,5*7A,1701228155704
NMEA,$GNGSA,A,3,06,11,12,13,14,15,17,19,22,24,,,0.7,0.4,0.5,1*39,1701228155730
NMEA,$PSSGR,GSA,A,3,06,24,,,,,,,,,,,0.7,0.4,0.5,1,8*43,1701228155730
NMEA,$GNGSA,A,3,67,75,76,85,86,87,,,,,,,0.7,0.4,0.5,2*3A,1701228155730
NMEA,$GNGSA,A,3,02,07,27,30,34,36,,,,,,,0.7,0.4,0.5,3*34,1701228155730
NMEA,$PSSGR,GSA,A,3,302,307,330,334,336,,,,,,,,0.7,0.4,0.5,3,1*7F,1701228155730
NMEA,$GNGSA,A,3,11,12,23,24,25,34,43,44,,,,,0.7,0.4,0.5,4*31,1701228155730
NMEA,$PSSGR,GSA,A,3,223,224,225,234,243,244,,,,,,,0.7,0.4,0.5,4,5*4B,1701228155730
NMEA,$GNVTG,28.2,T,15.3,M,1.2,N,2.2,K,A*31,1701228155730
NMEA,$GNDTM,W84,,0000.000000,N,00000.000000,E,0.000,W84*41,1701228155730
NMEA,$GNRMC,032236.00,A,3725.653899,N,12209.428191,W,1.2,28.2,291123,12.9,E,A,V*4A,1701228155730
NMEA,$GNGNS,032236.00,3725.653899,N,12209.428191,W,AAAANN,30,0.4,12.3,-32.6,,,V*2F,1701228155730
NMEA,$GNGGA,032236.00,3725.653899,N,12209.428191,W,1,12,0.4,12.3,M,-32.6,M,,*7F,1701228155730
NMEA,$PSMSG,magcal=PASS,bluesky=0*00,1701228155741
NMEA,$GPGSV,3,1,11,06,50,141,37,11,26,175,29,12,24,296,46,14,21,094,29,1*63,1701228156693
NMEA,$GPGSV,3,2,11,15,10,239,35,17,38,046,40,19,65,035,41,22,39,081,44,1*6E,1701228156693
NMEA,$GPGSV,3,3,11,24,55,288,47,44,00,000,42,46,00,000,38,1*5C,1701228156693
NMEA,$GPGSV,1,1,03,06,50,141,26,11,26,175,21,24,55,288,31,8*5F,1701228156693
NMEA,$GLGSV,2,1,07,22,78,133,37,12,63,358,42,11,40,109,32,23,28,199,32,1*7E,1701228156693
NMEA,$GLGSV,2,2,07,21,39,034,46,03,05,302,29,04,01,346,18,1*42,1701228156693
NMEA,$GAGSV,2,1,07,02,26,093,30,07,18,236,28,15,35,171,36,27,37,304,42,7*7B,1701228156693
NMEA,$GAGSV,2,2,07,30,69,035,37,34,55,096,35,36,22,041,42,7*42,1701228156693
NMEA,$GAGSV,2,1,07,02,26,093,21,07,18,236,23,15,35,171,24,27,37,304,28,1*79,1701228156693
NMEA,$GAGSV,2,2,07,30,69,035,32,34,55,096,28,36,22,041,32,1*4A,1701228156693
NMEA,$GBGSV,2,1,08,44,35,047,43,43,36,216,33,34,83,153,38,25,77,320,43,1*79,1701228156693
NMEA,$GBGSV,2,2,08,24,43,127,33,23,26,312,39,12,59,051,42,11,61,203,39,1*75,1701228156693
NMEA,$GBGSV,2,1,06,23,26,312,38,24,43,127,33,25,77,320,41,34,83,153,37,3*76,1701228156693
NMEA,$GBGSV,2,2,06,43,36,216,30,44,35,047,42,3*75,1701228156693
NMEA,$GBGSV,2,1,06,23,26,312,35,24,43,127,22,25,77,320,27,34,83,153,24,5*7F,1701228156693
NMEA,$GBGSV,2,2,06,43,36,216,24,44,35,047,35,5*76,1701228156693
NMEA,$GNGSA,A,3,06,11,12,14,15,17,19,22,24,,,,0.7,0.4,0.5,1*3B,1701228156725
NMEA,$PSSGR,GSA,A,3,06,11,24,,,,,,,,,,0.7,0.4,0.5,1,8*43,1701228156725
NMEA,$GNGSA,A,3,67,75,76,85,86,87,,,,,,,0.7,0.4,0.5,2*3A,1701228156725
NMEA,$GNGSA,A,3,02,07,27,30,34,36,,,,,,,0.7,0.4,0.5,3*34,1701228156725
NMEA,$PSSGR,GSA,A,3,302,307,330,334,336,,,,,,,,0.7,0.4,0.5,3,1*7F,1701228156725
NMEA,$GNGSA,A,3,11,12,23,24,25,34,43,44,,,,,0.7,0.4,0.5,4*31,1701228156725
NMEA,$PSSGR,GSA,A,3,223,224,225,234,243,244,,,,,,,0.7,0.4,0.5,4,5*4B,1701228156725
NMEA,$GNVTG,49.4,T,36.5,M,1.2,N,2.2,K,A*37,1701228156725
NMEA,$GNDTM,W84,,0000.000000,N,00000.000000,E,0.000,W84*41,1701228156725
NMEA,$GNRMC,032237.00,A,3725.654155,N,12209.427730,W,1.2,49.4,291123,12.9,E,A,V*46,1701228156725
NMEA,$GNGNS,032237.00,3725.654155,N,12209.427730,W,AAAANN,29,0.4,12.4,-32.6,,,V*2D,1701228156725
NMEA,$GNGGA,032237.00,3725.654155,N,12209.427730,W,1,12,0.4,12.4,M,-32.6,M,,*75,1701228156725
NMEA,$PSMSG,magcal=PASS,bluesky=0*00,1701228156731
NMEA,$GPGSV,3,1,11,06,50,141,37,11,26,175,31,12,24,296,46,14,21,094,27,1*64,1701228157700
NMEA,$GPGSV,3,2,11,15,10,239,34,17,38,046,44,19,65,035,37,22,39,081,43,1*6D,1701228157700
NMEA,$GPGSV,3,3,11,24,55,288,45,44,00,000,40,46,00,000,36,1*52,1701228157700
NMEA,$GPGSV,1,1,03,06,50,141,29,11,26,175,21,24,55,288,31,8*50,1701228157700
NMEA,$GLGSV,2,1,07,22,78,133,37,12,63,358,41,11,40,109,32,23,28,199,32,1*7D,1701228157700
NMEA,$GLGSV,2,2,07,21,39,034,43,03,05,302,32,04,01,346,18,1*4D,1701228157700
NMEA,$GAGSV,2,1,07,02,26,093,30,07,18,236,28,15,35,171,35,27,37,304,43,7*79,1701228157700
NMEA,$GAGSV,2,2,07,30,69,035,37,34,55,096,35,36,22,041,41,7*41,1701228157700
NMEA,$GAGSV,2,1,07,02,26,093,26,07,18,236,23,15,35,171,23,27,37,304,23,1*72,1701228157700
NMEA,$GAGSV,2,2,07,30,69,035,30,34,55,096,23,36,22,041,32,1*43,1701228157700
NMEA,$GBGSV,2,1,08,44,35,047,40,43,36,216,34,34,83,153,39,25,77,320,40,1*7F,1701228157700
NMEA,$GBGSV,2,2,08,24,43,127,33,23,26,312,40,12,59,051,40,11,61,203,37,1*77,1701228157700
NMEA,$GBGSV,2,1,06,23,26,312,39,24,43,127,31,25,77,320,39,34,83,153,38,3*75,1701228157700
NMEA,$GBGSV,2,2,06,43,36,216,33,44,35,047,38,3*7B,1701228157700
NMEA,$GBGSV,2,1,06,23,26,312,34,24,43,127,22,25,77,320,27,34,83,153,25,5*7F,1701228157700
NMEA,$GBGSV,2,2,06,43,36,216,19,44,35,047,34,5*79,1701228157700
NMEA,$GNGSA,A,3,06,11,12,14,15,17,19,22,24,,,,0.7,0.4,0.5,1*3B,1701228157717
NMEA,$PSSGR,GSA,A,3,06,11,24,,,,,,,,,,0.7,0.4,0.5,1,8*43,1701228157717
NMEA,$GNGSA,A,3,67,75,76,85,86,87,,,,,,,0.7,0.4,0.5,2*3A,1701228157717
NMEA,$GNGSA,A,3,02,07,27,30,34,36,,,,,,,0.7,0.4,0.5,3*34,1701228157717
NMEA,$PSSGR,GSA,A,3,302,307,330,334,336,,,,,,,,0.7,0.4,0.5,3,1*7F,1701228157717
NMEA,$GNGSA,A,3,11,12,23,24,25,34,43,44,,,,,0.7,0.4,0.5,4*31,1701228157717
NMEA,$PSSGR,GSA,A,3,223,224,225,234,243,244,,,,,,,0.7,0.4,0.5,4,5*4B,1701228157717
NMEA,$GNVTG,49.7,T,36.8,M,1.5,N,2.7,K,A*3B,1701228157717
NMEA,$GNDTM,W84,,0000.000000,N,00000.000000,E,0.000,W84*41,1701228157717
NMEA,$GNRMC,032238.00,A,3725.654395,N,12209.427186,W,1.5,49.7,291123,12.9,E,A,V*48,1701228157717
NMEA,$GNGNS,032238.00,3725.654395,N,12209.427186,W,AAAANN,29,0.4,12.3,-32.6,,,V*20,1701228157717
NMEA,$GNGGA,032238.00,3725.654395,N,12209.427186,W,1,12,0.4,12.3,M,-32.6,M,,*78,1701228157717
NMEA,$PSMSG,magcal=PASS,bluesky=0*00,1701228157721
NMEA,$GPGSV,3,1,11,06,50,141,36,11,26,175,27,12,24,296,47,14,21,094,30,1*65,1701228158696
NMEA,$GPGSV,3,2,11,15,10,239,36,17,38,046,42,19,65,035,40,22,39,081,40,1*6A,1701228158696
NMEA,$GPGSV,3,3,11,24,55,288,42,44,00,000,41,46,00,000,36,1*54,1701228158696
NMEA,$GPGSV,1,1,03,06,50,141,27,11,26,175,23,24,55,288,28,8*54,1701228158696
NMEA,$GLGSV,2,1,07,22,78,133,38,12,63,358,43,11,40,109,31,23,28,199,33,1*72,1701228158696
NMEA,$GLGSV,2,2,07,21,39,034,42,03,05,302,29,04,01,346,19,1*47,1701228158696
NMEA,$GAGSV,2,1,08,02,26,093,28,07,18,236,29,15,35,171,34,19,02,329,16,7*7B,1701228158696
NMEA,$GAGSV,2,2,08,27,37,304,43,30,69,035,38,34,55,096,37,36,22,041,43,7*70,1701228158696
NMEA,$GAGSV,2,1,07,02,26,093,28,07,18,236,21,15,35,171,25,27,37,304,31,1*7B,1701228158696
NMEA,$GAGSV,2,2,07,30,69,035,33,34,55,096,28,36,22,041,35,1*4C,1701228158696
NMEA,$GBGSV,2,1,08,44,35,047,41,43,36,216,35,34,83,153,40,25,77,320,44,1*75,1701228158696
NMEA,$GBGSV,2,2,08,24,43,127,35,23,26,312,41,12,59,051,39,11,61,203,34,1*7D,1701228158696
NMEA,$GBGSV,2,1,06,23,26,312,41,24,43,127,32,25,77,320,42,34,83,153,38,3*75,1701228158696
NMEA,$GBGSV,2,2,06,43,36,216,33,44,35,047,41,3*75,1701228158696
NMEA,$GBGSV,2,1,06,23,26,312,34,24,43,127,22,25,77,320,27,34,83,153,24,5*7E,1701228158696
NMEA,$GBGSV,2,2,06,43,36,216,19,44,35,047,34,5*79,1701228158696
NMEA,$GNGSA,A,3,06,11,12,14,15,17,19,22,24,,,,0.7,0.4,0.5,1*3B,1701228158713
NMEA,$PSSGR,GSA,A,3,06,11,24,,,,,,,,,,0.7,0.4,0.5,1,8*43,1701228158713
NMEA,$GNGSA,A,3,67,75,76,85,86,87,,,,,,,0.7,0.4,0.5,2*3A,1701228158713
NMEA,$GNGSA,A,3,02,07,27,30,34,36,,,,,,,0.7,0.4,0.5,3*34,1701228158713
NMEA,$PSSGR,GSA,A,3,302,307,330,334,336,,,,,,,,0.7,0.4,0.5,3,1*7F,1701228158713
NMEA,$GNGSA,A,3,11,12,23,24,25,34,43,44,,,,,0.7,0.4,0.5,4*31,1701228158713
NMEA,$PSSGR,GSA,A,3,223,224,225,234,243,244,,,,,,,0.7,0.4,0.5,4,5*4B,1701228158713
NMEA,$GNVTG,47.1,T,34.2,M,1.7,N,3.2,K,A*3D,1701228158713
NMEA,$GNDTM,W84,,0000.000000,N,00000.000000,E,0.000,W84*41,1701228158713
NMEA,$GNRMC,032239.00,A,3725.654738,N,12209.426598,W,1.7,47.1,291123,12.9,E,A,V*4A,1701228158713
NMEA,$GNGNS,032239.00,3725.654738,N,12209.426598,W,AAAANN,29,0.4,12.3,-32.6,,,V*28,1701228158713
NMEA,$GNGGA,032239.00,3725.654738,N,12209.426598,W,1,12,0.4,12.3,M,-32.6,M,,*70,1701228158713
NMEA,$PSMSG,magcal=PASS,bluesky=0*00,1701228158716
NMEA,$GPGSV,3,1,11,06,50,141,36,11,26,175,27,12,24,296,47,14,21,094,32,1*67,1701228159703
NMEA,$GPGSV,3,2,11,15,10,239,35,17,38,046,44,19,65,035,34,22,39,081,38,1*63,1701228159703
NMEA,$GPGSV,3,3,11,24,55,288,46,44,00,000,39,46,00,000,36,1*5F,1701228159703
NMEA,$GPGSV,1,1,03,06,50,141,24,11,26,175,24,24,55,288,34,8*5D,1701228159703
NMEA,$GLGSV,2,1,07,22,78,133,40,12,63,358,42,11,40,109,36,23,28,199,32,1*7A,1701228159703
NMEA,$GLGSV,2,2,07,21,39,034,42,03,05,302,33,04,01,346,19,1*4C,1701228159703
NMEA,$GAGSV,2,1,08,02,26,093,31,07,18,236,29,15,35,171,33,19,02,329,16,7*74,1701228159703
NMEA,$GAGSV,2,2,08,27,37,304,42,30,69,035,39,34,55,096,37,36,22,041,43,7*70,1701228159703
NMEA,$GAGSV,2,1,07,02,26,093,30,07,18,236,23,15,35,171,25,27,37,304,35,1*74,1701228159703
NMEA,$GAGSV,2,2,07,30,69,035,33,34,55,096,28,36,22,041,34,1*4D,1701228159703
NMEA,$GBGSV,2,1,08,44,35,047,37,43,36,216,34,34,83,153,41,25,77,320,40,1*70,1701228159703
NMEA,$GBGSV,2,2,08,24,43,127,34,23,26,312,43,12,59,051,40,11,61,203,34,1*70,1701228159703
NMEA,$GBGSV,2,1,06,23,26,312,42,24,43,127,32,25,77,320,40,34,83,153,40,3*7B,1701228159703
NMEA,$GBGSV,2,2,06,43,36,216,33,44,35,047,38,3*7B,1701228159703
NMEA,$GBGSV,2,1,06,23,26,312,32,24,43,127,17,25,77,320,30,34,83,153,23,5*7F,1701228159703
NMEA,$GBGSV,2,2,06,43,36,216,22,44,35,047,33,5*76,1701228159703
NMEA,$GNGSA,A,3,06,11,12,14,15,17,19,22,24,,,,0.7,0.4,0.5,1*3B,1701228159721
NMEA,$PSSGR,GSA,A,3,06,11,24,,,,,,,,,,0.7,0.4,0.5,1,8*43,1701228159721
NMEA,$GNGSA,A,3,67,75,76,85,86,87,,,,,,,0.7,0.4,0.5,2*3A,1701228159721
NMEA,$GNGSA,A,3,02,07,27,30,34,36,,,,,,,0.7,0.4,0.5,3*34,1701228159721
NMEA,$PSSGR,GSA,A,3,302,307,330,334,336,,,,,,,,0.7,0.4,0.5,3,1*7F,1701228159721
NMEA,$GNGSA,A,3,11,12,23,24,25,34,43,44,,,,,0.7,0.4,0.5,4*31,1701228159721
NMEA,$PSSGR,GSA,A,3,223,224,225,234,243,244,,,,,,,0.7,0.4,0.5,4,5*4B,1701228159721
NMEA,$GNVTG,49.8,T,36.9,M,1.8,N,3.3,K,A*3D,1701228159721
NMEA,$GNDTM,W84,,0000.000000,N,00000.000000,E,0.000,W84*41,1701228159721
NMEA,$GNRMC,032240.00,A,3725.655114,N,12209.425989,W,1.8,49.8,291123,12.9,E,A,V*4A,1701228159721
NMEA,$GNGNS,032240.00,3725.655114,N,12209.425989,W,AAAANN,29,0.4,12.1,-32.6,,,V*22,1701228159721
NMEA,$GNGGA,032240.00,3725.655114,N,12209.425989,W,1,12,0.4,12.1,M,-32.6,M,,*7A,1701228159721
NMEA,$PSMSG,magcal=PASS,bluesky=0*00,1701228159728
NMEA,$GPGSV,3,1,11,06,50,141,34,11,26,175,29,12,24,296,46,14,21,094,34,1*6C,1701228160698
NMEA,$GPGSV,3,2,11,15,10,239,36,17,38,046,44,19,65,035,40,22,39,081,42,1*6E,1701228160698
NMEA,$GPGSV,3,3,11,24,55,288,44,44,00,000,41,46,00,000,37,1*53,1701228160698
NMEA,$GPGSV,1,1,03,06,50,141,26,11,26,175,27,24,55,288,35,8*5D,1701228160698
NMEA,$GLGSV,2,1,07,22,78,133,41,12,63,358,40,11,40,109,40,23,28,199,32,1*78,1701228160698
NMEA,$GLGSV,2,2,07,21,39,034,38,03,05,302,33,04,01,346,19,1*41,1701228160698
NMEA,$GAGSV,2,1,08,02,26,093,37,07,18,236,27,15,35,171,33,19,02,329,16,7*7C,1701228160698
NMEA,$GAGSV,2,2,08,27,37,304,44,30,69,035,40,34,55,096,40,36,22,041,43,7*78,1701228160698
NMEA,$GAGSV,2,1,07,02,26,093,29,07,18,236,23,15,35,171,25,27,37,304,31,1*78,1701228160698
NMEA,$GAGSV,2,2,07,30,69,035,33,34,55,096,30,36,22,041,34,1*44,1701228160698
NMEA,$GBGSV,2,1,08,44,35,047,41,43,36,216,33,34,83,153,42,25,77,320,42,1*77,1701228160698
NMEA,$GBGSV,2,2,08,24,43,127,33,23,26,312,45,12,59,051,42,11,61,203,34,1*73,1701228160698
NMEA,$GBGSV,2,1,06,23,26,312,44,24,43,127,31,25,77,320,37,34,83,153,40,3*7E,1701228160698
NMEA,$GBGSV,2,2,06,43,36,216,33,44,35,047,41,3*75,1701228160698
NMEA,$GBGSV,2,1,06,23,26,312,29,24,43,127,26,25,77,320,32,34,83,153,26,5*70,1701228160698
NMEA,$GBGSV,2,2,06,43,36,216,25,44,35,047,35,5*77,1701228160698
NMEA,$GNGSA,A,3,06,11,12,14,15,17,19,22,24,,,,0.7,0.4,0.5,1*3B,1701228160714
NMEA,$PSSGR,GSA,A,3,06,11,24,,,,,,,,,,0.7,0.4,0.5,1,8*43,1701228160714
NMEA,$GNGSA,A,3,67,75,76,85,86,87,,,,,,,0.7,0.4,0.5,2*3A,1701228160714
NMEA,$GNGSA,A,3,02,07,27,30,34,36,,,,,,,0.7,0.4,0.5,3*34,1701228160714
NMEA,$PSSGR,GSA,A,3,302,307,330,334,336,,,,,,,,0.7,0.4,0.5,3,1*7F,1701228160714
NMEA,$GNGSA,A,3,11,12,23,24,25,34,43,44,,,,,0.7,0.4,0.5,4*31,1701228160714
NMEA,$PSSGR,GSA,A,3,223,224,225,234,243,244,,,,,,,0.7,0.4,0.5,4,5*4B,1701228160714
NMEA,$GNVTG,51.9,T,39.0,M,1.9,N,3.5,K,A*34,1701228160714
NMEA,$GNDTM,W84,,0000.000000,N,00000.000000,E,0.000,W84*41,1701228160714
NMEA,$GNRMC,032241.00,A,3725.655465,N,12209.425351,W,1.9,51.9,291123,12.9,E,A,V*4E,1701228160714
NMEA,$GNGNS,032241.00,3725.655465,N,12209.425351,W,AAAANN,29,0.4,12.1,-32.6,,,V*2F,1701228160714
NMEA,$GNGGA,032241.00,3725.655465,N,12209.425351,W,1,12,0.4,12.1,M,-32.6,M,,*77,1701228160714
NMEA,$PSMSG,magcal=PASS,bluesky=0*00,1701228160720
NMEA,$GPGSV,3,1,11,06,50,141,35,11,26,175,32,12,24,296,44,14,21,094,35,1*64,1701228161703
NMEA,$GPGSV,3,2,11,15,10,239,36,17,38,046,44,19,65,035,39,22,39,081,41,1*63,1701228161703
NMEA,$GPGSV,3,3,11,24,55,288,42,44,00,000,38,46,00,000,35,1*59,1701228161703
NMEA,$GPGSV,1,1,03,06,50,141,28,11,26,175,31,24,55,288,29,8*59,1701228161703
NMEA,$GLGSV,2,1,07,22,78,133,42,12,63,358,37,11,40,109,38,23,28,199,32,1*74,1701228161703
NMEA,$GLGSV,2,2,07,21,39,034,36,03,05,302,36,04,01,346,19,1*4A,1701228161703
NMEA,$GAGSV,2,1,08,02,26,093,36,07,18,236,23,15,35,171,30,19,02,329,16,7*7A,1701228161703
NMEA,$GAGSV,2,2,08,27,37,304,41,30,69,035,39,34,55,096,38,36,22,041,42,7*7D,1701228161703
NMEA,$GAGSV,2,1,07,02,26,093,27,07,18,236,24,15,35,171,22,27,37,304,28,1*7E,1701228161703
NMEA,$GAGSV,2,2,07,30,69,035,33,34,55,096,27,36,22,041,31,1*47,1701228161703
NMEA,$GBGSV,2,1,08,44,35,047,39,43,36,216,31,34,83,153,41,25,77,320,44,1*7F,1701228161703
NMEA,$GBGSV,2,2,08,24,43,127,36,23,26,312,46,12,59,051,42,11,61,203,37,1*76,1701228161703
NMEA,$GBGSV,2,1,06,23,26,312,43,24,43,127,33,25,77,320,41,34,83,153,41,3*7B,1701228161703
NMEA,$GBGSV,2,2,06,43,36,216,31,44,35,047,40,3*76,1701228161703
NMEA,$GBGSV,2,1,06,23,26,312,31,24,43,127,25,25,77,320,30,34,83,153,25,5*7B,1701228161703
NMEA,$GBGSV,2,2,06,43,36,216,23,44,35,047,34,5*70,1701228161703
NMEA,$GNGSA,A,3,06,11,12,14,15,17,19,22,24,,,,0.7,0.4,0.5,1*3B,1701228161717
NMEA,$PSSGR,GSA,A,3,06,11,24,,,,,,,,,,0.7,0.4,0.5,1,8*43,1701228161717
NMEA,$GNGSA,A,3,67,75,76,85,86,87,,,,,,,0.7,0.4,0.5,2*3A,1701228161717
NMEA,$GNGSA,A,3,02,07,30,34,36,,,,,,,,0.7,0.4,0.5,3*31,1701228161717
NMEA,$PSSGR,GSA,A,3,302,307,330,334,336,,,,,,,,0.7,0.4,0.5,3,1*7F,1701228161717
NMEA,$GNGSA,A,3,11,12,23,24,25,34,43,44,,,,,0.7,0.4,0.5,4*31,1701228161717
NMEA,$PSSGR,GSA,A,3,223,224,225,234,243,244,,,,,,,0.7,0.4,0.5,4,5*4B,1701228161717
NMEA,$GNVTG,51.3,T,38.4,M,2.0,N,3.8,K,A*3C,1701228161717
NMEA,$GNDTM,W84,,0000.000000,N,00000.000000,E,0.000,W84*41,1701228161717
NMEA,$GNRMC,032242.00,A,3725.655819,N,12209.424654,W,2.0,51.3,291123,12.9,E,A,V*4B,1701228161717
NMEA,$GNGNS,032242.00,3725.655819,N,12209.424654,W,AAAANN,28,0.4,12.1,-32.6,,,V*2B,1701228161717
NMEA,$GNGGA,032242.00,3725.655819,N,12209.424654,W,1,12,0.4,12.1,M,-32.6,M,,*72,1701228161717
NMEA,$PSMSG,magcal=PASS,bluesky=0*00,1701228161721
NMEA,$GPGSV,3,1,11,06,50,141,36,11,26,175,30,12,24,296,44,14,21,094,34,1*64,1701228162696
NMEA,$GPGSV,3,2,11,15,10,239,37,17,38,046,45,19,65,035,36,22,39,081,40,1*6D,1701228162696
NMEA,$GPGSV,3,3,11,24,55,288,44,44,00,000,39,46,00,000,33,1*58,1701228162696
NMEA,$GPGSV,1,1,03,06,50,141,28,11,26,175,25,24,55,288,27,8*52,1701228162696
NMEA,$GLGSV,2,1,07,22,78,133,40,12,63,358,36,11,40,109,41,23,28,199,31,1*7A,1701228162696
NMEA,$GLGSV,2,2,07,21,39,034,39,03,05,302,31,04,01,346,19,1*42,1701228162696
NMEA,$GAGSV,2,1,08,02,26,093,32,07,18,236,29,15,35,171,28,19,02,329,16,7*7D,1701228162696
NMEA,$GAGSV,2,2,08,27,37,304,39,30,69,035,37,34,55,096,37,36,22,041,43,7*72,1701228162696
NMEA,$GAGSV,2,1,07,02,26,093,28,07,18,236,29,15,35,171,23,27,37,304,29,1*7C,1701228162696
NMEA,$GAGSV,2,2,07,30,69,035,31,34,55,096,27,36,22,041,32,1*46,1701228162696
NMEA,$GBGSV,2,1,08,44,35,047,38,43,36,216,31,34,83,153,40,25,77,320,45,1*7E,1701228162696
NMEA,$GBGSV,2,2,08,24,43,127,37,23,26,312,44,12,59,051,41,11,61,203,38,1*79,1701228162696
NMEA,$GBGSV,2,1,06,23,26,312,43,24,43,127,37,25,77,320,43,34,83,153,40,3*7C,1701228162696
NMEA,$GBGSV,2,2,06,43,36,216,31,44,35,047,36,3*77,1701228162696
NMEA,$GBGSV,2,1,06,23,26,312,29,24,43,127,28,25,77,320,28,34,83,153,27,5*74,1701228162696
NMEA,$GBGSV,2,2,06,43,36,216,23,44,35,047,34,5*70,1701228162696
NMEA,$GNGSA,A,3,06,11,12,14,15,17,19,22,24,,,,0.7,0.4,0.5,1*3B,1701228162710
NMEA,$PSSGR,GSA,A,3,06,11,24,,,,,,,,,,0.7,0.4,0.5,1,8*43,1701228162710
NMEA,$GNGSA,A,3,67,75,76,85,86,87,,,,,,,0.7,0.4,0.5,2*3A,1701228162710
NMEA,$GNGSA,A,3,02,07,30,34,36,,,,,,,,0.7,0.4,0.5,3*31,1701228162710
NMEA,$PSSGR,GSA,A,3,302,307,330,334,336,,,,,,,,0.7,0.4,0.5,3,1*7F,1701228162710
NMEA,$GNGSA,A,3,11,12,23,24,25,34,43,44,,,,,0.7,0.4,0.5,4*31,1701228162710
NMEA,$PSSGR,GSA,A,3,223,224,225,234,243,244,,,,,,,0.7,0.4,0.5,4,5*4B,1701228162710
NMEA,$GNVTG,52.5,T,39.6,M,2.1,N,4.0,K,A*34,1701228162710
NMEA,$GNDTM,W84,,0000.000000,N,00000.000000,E,0.000,W84*41,1701228162710
NMEA,$GNRMC,032243.00,A,3725.656242,N,12209.423929,W,2.1,52.5,291123,12.9,E,A,V*4B,1701228162710
NMEA,$GNGNS,032243.00,3725.656242,N,12209.423929,W,AAAANN,28,0.4,11.9,-32.6,,,V*24,1701228162710
NMEA,$GNGGA,032243.00,3725.656242,N,12209.423929,W,1,12,0.4,11.9,M,-32.6,M,,*7D,1701228162710
NMEA,$PSMSG,magcal=PASS,bluesky=0*00,1701228162716
NMEA,$GPGSV,3,1,11,06,50,141,36,11,26,175,30,12,24,296,46,14,21,094,33,1*61,1701228163692
NMEA,$GPGSV,3,2,11,15,10,239,32,17,38,046,45,19,65,035,38,22,39,081,36,1*67,1701228163692
NMEA,$GPGSV,3,3,11,24,55,288,46,44,00,000,36,46,00,000,35,1*53,1701228163692
NMEA,$GPGSV,1,1,03,06,50,141,22,11,26,175,30,24,55,288,26,8*5D,1701228163692
NMEA,$GLGSV,2,1,07,22,78,133,39,12,63,358,41,11,40,109,39,23,28,199,30,1*7A,1701228163692
NMEA,$GLGSV,2,2,07,21,39,034,41,03,05,302,31,04,01,346,18,1*4C,1701228163692
NMEA,$GAGSV,2,1,08,02,26,093,33,07,18,236,32,15,35,171,28,19,02,329,16,7*76,1701228163692
NMEA,$GAGSV,2,2,08,27,37,304,39,30,69,035,33,34,55,096,35,36,22,041,43,7*74,1701228163692
NMEA,$GAGSV,2,1,07,02,26,093,30,07,18,236,29,15,35,171,24,27,37,304,27,1*7C,1701228163692
NMEA,$GAGSV,2,2,07,30,69,035,31,34,55,096,28,36,22,041,34,1*4F,1701228163692
NMEA,$GBGSV,2,1,08,44,35,047,41,43,36,216,30,34,83,153,38,25,77,320,45,1*7E,1701228163692
NMEA,$GBGSV,2,2,08,24,43,127,40,23,26,312,43,12,59,051,39,11,61,203,38,1*71,1701228163692
NMEA,$GBGSV,2,1,06,23,26,312,43,24,43,127,37,25,77,320,44,34,83,153,38,3*74,1701228163692
NMEA,$GBGSV,2,2,06,43,36,216,29,44,35,047,38,3*70,1701228163692
NMEA,$GBGSV,2,1,06,23,26,312,28,24,43,127,28,25,77,320,27,34,83,153,25,5*78,1701228163692
NMEA,$GBGSV,2,2,06,43,36,216,23,44,35,047,34,5*70,1701228163692
NMEA,$GNGSA,A,3,06,11,12,14,15,17,19,22,24,,,,0.7,0.4,0.5,1*3B,1701228163706
NMEA,$PSSGR,GSA,A,3,06,11,24,,,,,,,,,,0.7,0.4,0.5,1,8*43,1701228163706
NMEA,$GNGSA,A,3,67,75,76,85,86,87,,,,,,,0.7,0.4,0.5,2*3A,1701228163706
NMEA,$GNGSA,A,3,02,07,30,34,36,,,,,,,,0.7,0.4,0.5,3*31,1701228163706
NMEA,$PSSGR,GSA,A,3,302,307,330,334,336,,,,,,,,0.7,0.4,0.5,3,1*7F,1701228163706
NMEA,$GNGSA,A,3,11,12,23,24,25,34,43,44,,,,,0.7,0.4,0.5,4*31,1701228163706
NMEA,$PSSGR,GSA,A,3,223,224,225,234,243,244,,,,,,,0.7,0.4,0.5,4,5*4B,1701228163706
NMEA,$GNVTG,52.7,T,39.8,M,2.2,N,4.1,K,A*3A,1701228163706
NMEA,$GNDTM,W84,,0000.000000,N,00000.000000,E,0.000,W84*41,1701228163706
NMEA,$GNRMC,032244.00,A,3725.656680,N,12209.423145,W,2.2,52.7,291123,12.9,E,A,V*45,1701228163706
NMEA,$GNGNS,032244.00,3725.656680,N,12209.423145,W,AAAANN,28,0.4,11.7,-32.6,,,V*25,1701228163706
NMEA,$GNGGA,032244.00,3725.656680,N,12209.423145,W,1,12,0.4,11.7,M,-32.6,M,,*7C,1701228163706
NMEA,$PSMSG,magcal=PASS,bluesky=0*00,1701228163718
NMEA,$GPGSV,3,1,11,06,50,141,37,11,26,175,28,12,24,296,44,14,21,094,32,1*6A,1701228164697
NMEA,$GPGSV,3,2,11,15,10,239,34,17,38,046,45,19,65,035,37,22,39,081,35,1*6D,1701228164697
NMEA,$GPGSV,3,3,11,24,55,288,47,44,00,000,38,46,00,000,35,1*5C,1701228164697
NMEA,$GPGSV,1,1,03,06,50,141,25,11,26,175,26,24,55,288,22,8*59,1701228164697
NMEA,$GLGSV,2,1,07,22,78,133,40,12,63,358,37,11,40,109,39,23,28,199,27,1*73,1701228164697
NMEA,$GLGSV,2,2,07,21,39,034,38,03,05,302,30,04,01,346,24,1*4C,1701228164697
NMEA,$GAGSV,2,1,08,02,26,093,31,07,18,236,32,15,35,171,28,19,02,329,16,7*74,1701228164697
NMEA,$GAGSV,2,2,08,27,37,304,41,30,69,035,35,34,55,096,37,36,22,041,44,7*78,1701228164697
NMEA,$GAGSV,2,1,07,02,26,093,23,07,18,236,30,15,35,171,23,27,37,304,27,1*71,1701228164697
NMEA,$GAGSV,2,2,07,30,69,035,30,34,55,096,26,36,22,041,34,1*40,1701228164697
NMEA,$GBGSV,2,1,08,44,35,047,39,43,36,216,30,34,83,153,38,25,77,320,45,1*71,1701228164697
NMEA,$GBGSV,2,2,08,24,43,127,39,23,26,312,42,12,59,051,40,11,61,203,39,1*71,1701228164697
NMEA,$GBGSV,2,1,06,23,26,312,41,24,43,127,38,25,77,320,45,34,83,153,39,3*79,1701228164697
NMEA,$GBGSV,2,2,06,43,36,216,27,44,35,047,39,3*7F,1701228164697
NMEA,$GBGSV,2,1,06,23,26,312,31,24,43,127,28,25,77,320,29,34,83,153,28,5*73,1701228164697
NMEA,$GBGSV,2,2,06,43,36,216,23,44,35,047,34,5*70,1701228164697
NMEA,$GNGSA,A,3,06,11,12,14,15,17,19,22,24,,,,0.7,0.4,0.5,1*3B,1701228164727
NMEA,$PSSGR,GSA,A,3,06,11,24,,,,,,,,,,0.7,0.4,0.5,1,8*43,1701228164727
NMEA,$GNGSA,A,3,67,75,76,85,86,87,,,,,,,0.7,0.4,0.5,2*3A,1701228164727
NMEA,$GNGSA,A,3,02,07,30,34,36,,,,,,,,0.7,0.4,0.5,3*31,1701228164727
NMEA,$PSSGR,GSA,A,3,302,307,330,334,336,,,,,,,,0.7,0.4,0.5,3,1*7F,1701228164727
NMEA,$GNGSA,A,3,11,12,23,24,25,34,43,44,,,,,0.7,0.4,0.5,4*31,1701228164727
NMEA,$PSSGR,GSA,A,3,223,224,225,234,243,244,,,,,,,0.7,0.4,0.5,4,5*4B,1701228164727
NMEA,$GNVTG,52.6,T,39.7,M,2.3,N,4.2,K,A*36,1701228164727
NMEA,$GNDTM,W84,,0000.000000,N,00000.000000,E,0.000,W84*41,1701228164727
NMEA,$GNRMC,032245.00,A,3725.657126,N,12209.422493,W,2.3,52.6,291123,12.9,E,A,V*41,1701228164727
NMEA,$GNGNS,032245.00,3725.657126,N,12209.422493,W,AAAANN,28,0.4,11.6,-32.6,,,V*20,1701228164727
NMEA,$GNGGA,032245.00,3725.657126,N,12209.422493,W,1,12,0.4,11.6,M,-32.6,M,,*79,1701228164727
NMEA,$PSMSG,magcal=PASS,bluesky=0*00,1701228164731
NMEA,$GPGSV,3,1,11,06,50,141,37,11,26,175,29,12,24,296,44,14,21,094,29,1*61,1701228165696
NMEA,$GPGSV,3,2,11,15,10,239,36,17,38,046,45,19,65,035,36,22,39,081,35,1*6E,1701228165696
NMEA,$GPGSV,3,3,11,24,55,288,47,44,00,000,38,46,00,000,35,1*5C,1701228165696
NMEA,$GPGSV,1,1,03,06,50,141,25,11,26,175,24,24,55,288,26,8*5F,1701228165696
NMEA,$GLGSV,2,1,07,22,78,133,38,12,63,358,37,11,40,109,40,23,28,199,27,1*72,1701228165696
NMEA,$GLGSV,2,2,07,21,39,034,38,03,05,302,32,04,01,346,24,1*4E,1701228165696
NMEA,$GAGSV,2,1,08,02,26,093,34,07,18,236,31,15,35,171,26,19,02,329,16,7*7C,1701228165696
NMEA,$GAGSV,2,2,08,27,37,304,39,30,69,035,35,34,55,096,38,36,22,041,43,7*7F,1701228165696
NMEA,$GAGSV,2,1,07,02,26,093,24,07,18,236,29,15,35,171,23,27,37,304,28,1*71,1701228165696
NMEA,$GAGSV,2,2,07,30,69,035,30,34,55,096,27,36,22,041,33,1*46,1701228165696
NMEA,$GBGSV,2,1,08,44,35,047,36,43,36,216,29,34,83,153,39,25,77,320,45,1*77,1701228165696
NMEA,$GBGSV,2,2,08,24,43,127,40,23,26,312,40,12,59,051,41,11,61,203,39,1*7C,1701228165696
NMEA,$GBGSV,2,1,06,23,26,312,39,24,43,127,38,25,77,320,44,34,83,153,39,3*77,1701228165696
NMEA,$GBGSV,2,2,06,43,36,216,28,44,35,047,36,3*7F,1701228165696
NMEA,$GBGSV,2,1,06,23,26,312,29,24,43,127,28,25,77,320,28,34,83,153,26,5*75,1701228165696
NMEA,$GBGSV,2,2,06,43,36,216,20,44,35,047,33,5*74,1701228165696
NMEA,$GNGSA,A,3,06,11,12,14,15,17,19,22,24,,,,0.7,0.4,0.5,1*3B,1701228165719
NMEA,$PSSGR,GSA,A,3,06,11,24,,,,,,,,,,0.7,0.4,0.5,1,8*43,1701228165719
NMEA,$GNGSA,A,3,67,75,76,85,86,87,,,,,,,0.7,0.4,0.5,2*3A,1701228165719
NMEA,$GNGSA,A,3,02,07,30,34,36,,,,,,,,0.7,0.4,0.5,3*31,1701228165719
NMEA,$PSSGR,GSA,A,3,302,307,330,334,336,,,,,,,,0.7,0.4,0.5,3,1*7F,1701228165719
NMEA,$GNGSA,A,3,11,12,23,24,25,34,43,44,,,,,0.7,0.4,0.5,4*31,1701228165719
NMEA,$PSSGR,GSA,A,3,223,224,225,234,243,244,,,,,,,0.7,0.4,0.5,4,5*4B,1701228165719
NMEA,$GNVTG,50.9,T,38.0,M,2.4,N,4.5,K,A*3D,1701228165719
NMEA,$GNDTM,W84,,0000.000000,N,00000.000000,E,0.000,W84*41,1701228165719
NMEA,$GNRMC,032246.00,A,3725.657610,N,12209.421810,W,2.4,50.9,291123,12.9,E,A,V*4E,1701228165719
NMEA,$GNGNS,032246.00,3725.657610,N,12209.421810,W,AAAANN,28,0.4,11.6,-32.6,,,V*25,1701228165719
NMEA,$GNGGA,032246.00,3725.657610,N,12209.421810,W,1,12,0.4,11.6,M,-32.6,M,,*7C,1701228165719
NMEA,$PSMSG,magcal=PASS,bluesky=0*00,1701228165730
NMEA,$GPGSV,3,1,11,06,50,141,36,11,26,175,33,12,24,296,43,14,21,094,32,1*66,1701228166696
NMEA,$GPGSV,3,2,11,15,10,239,35,17,38,046,45,19,65,035,36,22,39,081,37,1*6F,1701228166696
NMEA,$GPGSV,3,3,11,24,55,288,46,44,00,000,38,46,00,000,33,1*5B,1701228166696
NMEA,$GPGSV,1,1,03,06,50,141,24,11,26,175,24,24,55,288,23,8*5B,1701228166696
NMEA,$GLGSV,2,1,07,22,78,133,37,12,63,358,40,11,40,109,36,23,28,199,27,1*7C,1701228166696
NMEA,$GLGSV,2,2,07,21,39,034,42,03,05,302,30,04,01,346,24,1*41,1701228166696
NMEA,$GAGSV,2,1,08,02,26,093,38,07,18,236,30,15,35,171,30,19,02,329,16,7*76,1701228166696
NMEA,$GAGSV,2,2,08,27,37,304,38,30,69,035,35,34,55,096,38,36,22,041,44,7*79,1701228166696
NMEA,$GAGSV,2,1,07,02,26,093,28,07,18,236,30,15,35,171,23,27,37,304,28,1*75,1701228166696
NMEA,$GAGSV,2,2,07,30,69,035,32,34,55,096,27,36,22,041,33,1*44,1701228166696
NMEA,$GBGSV,2,1,08,44,35,047,39,43,36,216,29,34,83,153,39,25,77,320,45,1*78,1701228166696
NMEA,$GBGSV,2,2,08,24,43,127,38,23,26,312,36,12,59,051,40,11,61,203,38,1*72,1701228166696
NMEA,$GBGSV,2,1,06,23,26,312,36,24,43,127,35,25,77,320,44,34,83,153,38,3*74,1701228166696
NMEA,$GBGSV,2,2,06,43,36,216,26,44,35,047,35,3*72,1701228166696
NMEA,$GBGSV,2,1,06,23,26,312,26,24,43,127,28,25,77,320,29,34,83,153,27,5*7A,1701228166696
NMEA,$GBGSV,2,2,06,43,36,216,20,44,35,047,34,5*73,1701228166696
NMEA,$GNGSA,A,3,06,11,12,14,15,17,19,22,24,,,,0.7,0.4,0.5,1*3B,1701228166709
NMEA,$PSSGR,GSA,A,3,06,11,24,,,,,,,,,,0.7,0.4,0.5,1,8*43,1701228166709
NMEA,$GNGSA,A,3,67,75,76,85,86,87,,,,,,,0.7,0.4,0.5,2*3A,1701228166709
NMEA,$GNGSA,A,3,02,07,30,34,36,,,,,,,,0.7,0.4,0.5,3*31,1701228166709
NMEA,$PSSGR,GSA,A,3,302,307,330,334,336,,,,,,,,0.7,0.4,0.5,3,1*7F,1701228166709
NMEA,$GNGSA,A,3,11,12,23,24,25,34,43,44,,,,,0.7,0.4,0.5,4*31,1701228166709
NMEA,$PSSGR,GSA,A,3,223,224,225,234,243,244,,,,,,,0.7,0.4,0.5,4,5*4B,1701228166709
NMEA,$GNVTG,53.6,T,40.7,M,2.2,N,4.1,K,A*3B,1701228166709
NMEA,$GNDTM,W84,,0000.000000,N,00000.000000,E,0.000,W84*41,1701228166709
NMEA,$GNRMC,032247.00,A,3725.657997,N,12209.421132,W,2.2,53.6,291123,12.9,E,A,V*4C,1701228166709
NMEA,$GNGNS,032247.00,3725.657997,N,12209.421132,W,AAAANN,28,0.4,11.4,-32.6,,,V*2F,1701228166709
NMEA,$GNGGA,032247.00,3725.657997,N,12209.421132,W,1,12,0.4,11.4,M,-32.6,M,,*76,1701228166709
NMEA,$PSMSG,magcal=PASS,bluesky=0*00,1701228166714
NMEA,$GPGSV,3,1,11,06,50,141,37,11,26,175,31,12,24,296,41,14,21,094,27,1*63,1701228167700
NMEA,$GPGSV,3,2,11,15,10,239,35,17,38,046,42,19,65,035,41,22,39,081,40,1*68,1701228167700
NMEA,$GPGSV,3,3,11,24,55,288,47,44,00,000,38,46,00,000,34,1*5D,1701228167700
NMEA,$GPGSV,1,1,03,06,50,141,24,11,26,175,33,24,55,288,28,8*56,1701228167700
NMEA,$GLGSV,2,1,07,22,78,133,38,12,63,358,43,11,40,109,39,23,28,199,26,1*7E,1701228167700
NMEA,$GLGSV,2,2,07,21,39,034,45,03,05,302,32,04,01,346,19,1*4A,1701228167700
NMEA,$GAGSV,2,1,08,02,26,093,34,07,18,236,31,15,35,171,26,19,02,329,16,7*7C,1701228167700
NMEA,$GAGSV,2,2,08,27,37,304,40,30,69,035,36,34,55,096,31,36,22,041,43,7*7B,1701228167700
NMEA,$GAGSV,2,1,07,02,26,093,28,07,18,236,29,15,35,171,26,27,37,304,29,1*79,1701228167700
NMEA,$GAGSV,2,2,07,30,69,035,30,34,55,096,24,36,22,041,32,1*44,1701228167700
NMEA,$GBGSV,2,1,08,44,35,047,41,43,36,216,30,34,83,153,39,25,77,320,42,1*78,1701228167700
NMEA,$GBGSV,2,2,08,24,43,127,38,23,26,312,36,12,59,051,38,11,61,203,37,1*72,1701228167700
NMEA,$GBGSV,2,1,06,23,26,312,37,24,43,127,36,25,77,320,42,34,83,153,37,3*7F,1701228167700
NMEA,$GBGSV,2,2,06,43,36,216,29,44,35,047,39,3*71,1701228167700
NMEA,$GBGSV,2,1,06,23,26,312,25,24,43,127,23,25,77,320,25,34,83,153,27,5*7E,1701228167700
NMEA,$GBGSV,2,2,06,43,36,216,21,44,35,047,33,5*75,1701228167700
NMEA,$GNGSA,A,3,06,11,12,14,15,17,19,22,24,,,,0.7,0.4,0.5,1*3B,1701228167718
NMEA,$PSSGR,GSA,A,3,06,11,24,,,,,,,,,,0.7,0.4,0.5,1,8*43,1701228167718
NMEA,$GNGSA,A,3,67,75,76,85,86,87,,,,,,,0.7,0.4,0.5,2*3A,1701228167718
NMEA,$GNGSA,A,3,02,07,30,34,36,,,,,,,,0.7,0.4,0.5,3*31,1701228167718
NMEA,$PSSGR,GSA,A,3,302,307,330,334,336,,,,,,,,0.7,0.4,0.5,3,1*7F,1701228167718
NMEA,$GNGSA,A,3,11,12,23,24,25,34,43,44,,,,,0.7,0.4,0.5,4*31,1701228167718
NMEA,$PSSGR,GSA,A,3,223,224,225,234,243,244,,,,,,,0.7,0.4,0.5,4,5*4B,1701228167718
NMEA,$GNVTG,54.7,T,41.8,M,2.4,N,4.4,K,A*30,1701228167718
NMEA,$GNDTM,W84,,0000.000000,N,00000.000000,E,0.000,W84*41,1701228167718
NMEA,$GNRMC,032248.00,A,3725.658372,N,12209.420420,W,2.4,54.7,291123,12.9,E,A,V*4A,1701228167718
NMEA,$GNGNS,032248.00,3725.658372,N,12209.420420,W,AAAANN,28,0.4,11.2,-32.6,,,V*2F,1701228167718
NMEA,$GNGGA,032248.00,3725.658372,N,12209.420420,W,1,12,0.4,11.2,M,-32.6,M,,*76,1701228167718
NMEA,$PSMSG,magcal=PASS,bluesky=0*00,1701228167726
NMEA,$GPGSV,3,1,11,06,50,141,36,11,26,175,30,12,24,296,41,14,21,094,30,1*65,1701228168697
NMEA,$GPGSV,3,2,11,15,10,239,34,17,38,046,44,19,65,035,41,22,39,081,41,1*6E,1701228168697
NMEA,$GPGSV,3,3,11,24,55,288,47,44,00,000,40,46,00,000,35,1*53,1701228168697
NMEA,$GPGSV,1,1,03,06,50,141,28,11,26,175,33,24,55,288,30,8*53,1701228168697
NMEA,$GLGSV,2,1,07,22,78,133,38,12,63,358,44,11,40,109,39,23,28,199,28,1*77,1701228168697
NMEA,$GLGSV,2,2,07,21,39,034,46,03,05,302,30,04,01,346,19,1*4B,1701228168697
NMEA,$GAGSV,2,1,08,02,26,093,37,07,18,236,33,15,35,171,29,19,02,329,16,7*72,1701228168697
NMEA,$GAGSV,2,2,08,27,37,304,40,30,69,035,37,34,55,096,33,36,22,041,45,7*7E,1701228168697
NMEA,$GAGSV,2,1,07,02,26,093,28,07,18,236,31,15,35,171,26,27,37,304,27,1*7E,1701228168697
NMEA,$GAGSV,2,2,07,30,69,035,33,34,55,096,29,36,22,041,32,1*4A,1701228168697
NMEA,$GBGSV,2,1,08,44,35,047,37,43,36,216,30,34,83,153,39,25,77,320,41,1*7A,1701228168697
NMEA,$GBGSV,2,2,08,24,43,127,41,23,26,312,37,12,59,051,39,11,61,203,37,1*7C,1701228168697
NMEA,$GBGSV,2,1,06,23,26,312,38,24,43,127,40,25,77,320,43,34,83,153,38,3*7F,1701228168697
NMEA,$GBGSV,2,2,06,43,36,216,29,44,35,047,35,3*7D,1701228168697
NMEA,$GBGSV,2,1,06,23,26,312,29,24,43,127,28,25,77,320,26,34,83,153,28,5*75,1701228168697
NMEA,$GBGSV,2,2,06,43,36,216,21,44,35,047,31,5*77,1701228168697
NMEA,$GNGSA,A,3,06,11,12,14,15,17,19,22,24,,,,0.7,0.4,0.5,1*3B,1701228168709
NMEA,$PSSGR,GSA,A,3,06,11,24,,,,,,,,,,0.7,0.4,0.5,1,8*43,1701228168709
NMEA,$GNGSA,A,3,67,75,76,85,86,87,,,,,,,0.7,0.4,0.5,2*3A,1701228168709
NMEA,$GNGSA,A,3,02,07,30,34,36,,,,,,,,0.7,0.4,0.5,3*31,1701228168709
NMEA,$PSSGR,GSA,A,3,302,307,330,334,336,,,,,,,,0.7,0.4,0.5,3,1*7F,1701228168709
NMEA,$GNGSA,A,3,11,12,23,24,25,34,43,44,,,,,0.7,0.4,0.5,4*31,1701228168709
NMEA,$PSSGR,GSA,A,3,223,224,225,234,243,244,,,,,,,0.7,0.4,0.5,4,5*4B,1701228168709
NMEA,$GNVTG,54.4,T,41.5,M,2.5,N,4.6,K,A*3D,1701228168709
NMEA,$GNDTM,W84,,0000.000000,N,00000.000000,E,0.000,W84*41,1701228168709
NMEA,$GNRMC,032249.00,A,3725.658729,N,12209.419657,W,2.5,54.4,291123,12.9,E,A,V*4B,1701228168709
NMEA,$GNGNS,032249.00,3725.658729,N,12209.419657,W,AAAANN,28,0.4,11.2,-32.6,,,V*2C,1701228168709
NMEA,$GNGGA,032249.00,3725.658729,N,12209.419657,W,1,12,0.4,11.2,M,-32.6,M,,*75,1701228168709
NMEA,$PSMSG,magcal=PASS,bluesky=0*00,1701228168721
NMEA,$GPGSV,3,1,11,06,51,139,37,11,27,174,36,12,24,296,41,14,20,095,30,1*6C,1701228169698
NMEA,$GPGSV,3,2,11,15,10,239,35,17,38,046,44,19,65,035,38,22,39,082,38,1*6C,1701228169698
NMEA,$GPGSV,3,3,11,24,55,288,47,44,00,000,40,46,00,000,36,1*50,1701228169698
NMEA,$GPGSV,1,1,04,06,51,139,28,11,27,174,34,14,20,095,16,24,55,288,27,8*67,1701228169698
NMEA,$GLGSV,2,1,07,22,78,133,37,12,63,358,43,11,40,109,39,23,28,199,29,1*7E,1701228169698
NMEA,$GLGSV,2,2,07,21,39,034,43,03,05,302,33,04,01,346,19,1*4D,1701228169698
NMEA,$GAGSV,2,1,08,02,26,093,36,07,18,236,31,15,35,171,26,19,02,329,16,7*7E,1701228169698
NMEA,$GAGSV,2,2,08,27,37,304,39,30,69,035,34,34,55,096,35,36,22,041,43,7*73,1701228169698
NMEA,$GAGSV,2,1,07,02,26,093,28,07,18,236,29,15,35,171,31,27,37,304,27,1*71,1701228169698
NMEA,$GAGSV,2,2,07,30,69,035,31,34,55,096,28,36,22,041,32,1*49,1701228169698
NMEA,$GBGSV,2,1,08,44,35,047,38,43,36,216,30,34,83,153,39,25,77,320,42,1*76,1701228169698
NMEA,$GBGSV,2,2,08,24,43,127,40,23,26,312,36,12,59,051,39,11,61,203,34,1*7F,1701228169698
NMEA,$GBGSV,2,1,06,23,26,312,35,24,43,127,39,25,77,320,42,34,83,153,37,3*72,1701228169698
NMEA,$GBGSV,2,2,06,43,36,216,27,44,35,047,37,3*71,1701228169698
NMEA,$GBGSV,2,1,06,23,26,312,27,24,43,127,24,25,77,320,25,34,83,153,25,5*79,1701228169698
NMEA,$GBGSV,2,2,06,43,36,216,21,44,35,047,33,5*75,1701228169698
NMEA,$GNGSA,A,3,06,11,12,14,15,17,19,22,24,,,,0.7,0.4,0.5,1*3B,1701228169708
NMEA,$PSSGR,GSA,A,3,06,11,24,,,,,,,,,,0.7,0.4,0.5,1,8*43,1701228169708
NMEA,$GNGSA,A,3,67,75,76,85,86,87,,,,,,,0.7,0.4,0.5,2*3A,1701228169708
NMEA,$GNGSA,A,3,02,07,30,34,36,,,,,,,,0.7,0.4,0.5,3*31,1701228169708
NMEA,$PSSGR,GSA,A,3,302,307,330,334,336,,,,,,,,0.7,0.4,0.5,3,1*7F,1701228169708
NMEA,$GNGSA,A,3,11,12,23,24,25,34,43,44,,,,,0.7,0.4,0.5,4*31,1701228169708
